{
    "type": "FeatureCollection",
    "generator": "JOSM",
    "features": [
        {
            "type": "Feature",
            "properties": {
                "station": "JIDL",
                "railway": "subway_entrance",
                "ref": "A",
                "name": "Anchepalya Side"
            },
            "geometry": {
                "type": "Point",
                "coordinates": [
                    77.48833581671,
                    13.05212780775
                ]
            }
        },
        {
            "type": "Feature",
            "properties": {
                "highway": "elevator"
            },
            "geometry": {
                "type": "Point",
                "coordinates": [
                    77.55303740367,
                    12.88484364534
                ]
            }
        },
        {
            "type": "Feature",
            "properties": {
                "public_transport": "platform",
                "destination": "Madavara",
                "station": "NLC",
                "name": "Platform 1",
                "ref": "1",
                "color": "green"
            },
            "geometry": {
                "type": "Point",
                "coordinates": [
                    77.57365083101,
                    12.95112765454
                ]
            }
        },
        {
            "type": "Feature",
            "properties": {
                "public_transport": "platform",
                "ref": "2",
                "station": "KRAM",
                "destination": "Challaghatta",
                "color": "purple",
                "name": "Platform 2"
            },
            "geometry": {
                "type": "Point",
                "coordinates": [
                    77.67701459282,
                    12.99980477407
                ]
            }
        },
        {
            "type": "Feature",
            "properties": {
                "public_transport": "platform",
                "destination": "Madavara",
                "name": "Platform 1",
                "ref": "1",
                "station": "MNJN",
                "color": "green"
            },
            "geometry": {
                "type": "Point",
                "coordinates": [
                    77.49347357870,
                    13.05029354435
                ]
            }
        },
        {
            "type": "Feature",
            "properties": {
                "ref": "C",
                "station": "NLC",
                "railway": "subway_entrance"
            },
            "geometry": {
                "type": "Point",
                "coordinates": [
                    77.57356434926,
                    12.95022018954
                ]
            }
        },
        {
            "type": "Feature",
            "properties": {
                "ref": "C",
                "name": "Mantri Mall Side",
                "railway": "subway_entrance",
                "station": "SPGD"
            },
            "geometry": {
                "type": "Point",
                "coordinates": [
                    77.57054954499,
                    12.99095454399
                ]
            }
        },
        {
            "type": "Feature",
            "properties": {
                "highway": "elevator"
            },
            "geometry": {
                "type": "Point",
                "coordinates": [
                    77.73819431528,
                    12.98772024188
                ]
            }
        },
        {
            "type": "Feature",
            "properties": {
                "public_transport": "platform",
                "ref": "2",
                "station": "VSWA",
                "destination": "Challaghatta",
                "color": "purple",
                "name": "Platform 2"
            },
            "geometry": {
                "type": "Point",
                "coordinates": [
                    77.58339129016,
                    12.97387824502
                ]
            }
        },
        {
            "type": "Feature",
            "properties": {
                "highway": "elevator"
            },
            "geometry": {
                "type": "Point",
                "coordinates": [
                    77.54477888212,
                    12.87779569898
                ]
            }
        },
        {
            "type": "Feature",
            "properties": {
                "station": "MIRD",
                "ref": "B",
                "railway": "subway_entrance",
                "name": "Sheshadripuram College Side"
            },
            "geometry": {
                "type": "Point",
                "coordinates": [
                    77.55593015671,
                    12.97545696808
                ]
            }
        },
        {
            "type": "Feature",
            "properties": {
                "public_transport": "platform",
                "destination": "Whitefield (Kadugodi)",
                "name": "Platform 1",
                "station": "DKIA",
                "color": "purple",
                "ref": "1"
            },
            "geometry": {
                "type": "Point",
                "coordinates": [
                    77.71087527990,
                    12.98847008495
                ]
            }
        },
        {
            "type": "Feature",
            "properties": {
                "station": "MYRD",
                "ref": "D",
                "railway": "subway_entrance",
                "name": "Nayandahalli Junction Side"
            },
            "geometry": {
                "type": "Point",
                "coordinates": [
                    77.52950236067,
                    12.94647823848
                ]
            }
        },
        {
            "type": "Feature",
            "properties": {
                "highway": "elevator"
            },
            "geometry": {
                "type": "Point",
                "coordinates": [
                    77.47624039516,
                    12.90764385037
                ]
            }
        },
        {
            "type": "Feature",
            "properties": {
                "ref": "D",
                "station": "BSNK",
                "name": "Banashankari Temple Side",
                "railway": "subway_entrance"
            },
            "geometry": {
                "type": "Point",
                "coordinates": [
                    77.57359117236,
                    12.91645564168
                ]
            }
        },
        {
            "type": "Feature",
            "properties": {
                "highway": "elevator"
            },
            "geometry": {
                "type": "Point",
                "coordinates": [
                    77.57382988863,
                    12.91535957706
                ]
            }
        },
        {
            "type": "Feature",
            "properties": {
                "public_transport": "platform",
                "destination": "Whitefield (Kadugodi)",
                "station": "PATG",
                "name": "Platform 1",
                "color": "purple",
                "ref": "1"
            },
            "geometry": {
                "type": "Point",
                "coordinates": [
                    77.49869583965,
                    12.92485931015
                ]
            }
        },
        {
            "type": "Feature",
            "properties": {
                "ref": "E",
                "station": "VSWA",
                "railway": "subway_entrance",
                "name": "Central College Side"
            },
            "geometry": {
                "type": "Point",
                "coordinates": [
                    77.58314519987,
                    12.97398412201
                ]
            }
        },
        {
            "type": "Feature",
            "properties": {
                "public_transport": "platform",
                "ref": "2",
                "station": "NYHM",
                "destination": "Challaghatta",
                "color": "purple",
                "name": "Platform 2"
            },
            "geometry": {
                "type": "Point",
                "coordinates": [
                    77.52482055545,
                    12.94091815092
                ]
            }
        },
        {
            "type": "Feature",
            "properties": {
                "public_transport": "platform",
                "ref": "2",
                "station": "SPRU",
                "name": "Platform 2",
                "destination": "Silk Institute",
                "color": "green"
            },
            "geometry": {
                "type": "Point",
                "coordinates": [
                    77.56384401978,
                    12.99653835347
                ]
            }
        },
        {
            "type": "Feature",
            "properties": {
                "highway": "elevator"
            },
            "geometry": {
                "type": "Point",
                "coordinates": [
                    77.61709995501,
                    12.97264327021
                ]
            }
        },
        {
            "type": "Feature",
            "properties": {
                "name": "Ananya Hospital Side",
                "station": "RJNR",
                "ref": "B",
                "railway": "subway_entrance"
            },
            "geometry": {
                "type": "Point",
                "coordinates": [
                    77.55001723498,
                    13.00010967377
                ]
            }
        },
        {
            "type": "Feature",
            "properties": {
                "station": "TTY",
                "ref": "B",
                "railway": "subway_entrance",
                "name": "North Side"
            },
            "geometry": {
                "type": "Point",
                "coordinates": [
                    77.61750027470,
                    12.97301180897
                ]
            }
        },
        {
            "type": "Feature",
            "properties": {
                "public_transport": "platform",
                "destination": "Madavara",
                "name": "Platform 1",
                "station": "APTS",
                "ref": "1",
                "color": "green"
            },
            "geometry": {
                "type": "Point",
                "coordinates": [
                    77.53010719746,
                    12.86209235667
                ]
            }
        },
        {
            "type": "Feature",
            "properties": {
                "public_transport": "platform",
                "destination": "Whitefield (Kadugodi)",
                "station": "KDNH",
                "name": "Platform 1",
                "color": "purple",
                "ref": "1"
            },
            "geometry": {
                "type": "Point",
                "coordinates": [
                    77.71629637340,
                    12.97756237997
                ]
            }
        },
        {
            "type": "Feature",
            "properties": {
                "station": "MIRD",
                "railway": "subway_entrance",
                "ref": "A",
                "name": "Rajajinagar Side"
            },
            "geometry": {
                "type": "Point",
                "coordinates": [
                    77.55584969983,
                    12.97572094476
                ]
            }
        },
        {
            "type": "Feature",
            "properties": {
                "highway": "elevator"
            },
            "geometry": {
                "type": "Point",
                "coordinates": [
                    77.56536617741,
                    12.97562293025
                ]
            }
        },
        {
            "type": "Feature",
            "properties": {
                "highway": "elevator"
            },
            "geometry": {
                "type": "Point",
                "coordinates": [
                    77.51185208425,
                    12.93495403563
                ]
            }
        },
        {
            "type": "Feature",
            "properties": {
                "highway": "elevator"
            },
            "geometry": {
                "type": "Point",
                "coordinates": [
                    77.54518657856,
                    12.97403639611
                ]
            }
        },
        {
            "type": "Feature",
            "properties": {
                "name": "APMC Market Side",
                "ref": "B",
                "station": "YPM",
                "railway": "subway_entrance"
            },
            "geometry": {
                "type": "Point",
                "coordinates": [
                    77.54967927665,
                    13.02296074168
                ]
            }
        },
        {
            "type": "Feature",
            "properties": {
                "highway": "elevator"
            },
            "geometry": {
                "type": "Point",
                "coordinates": [
                    77.64442562923,
                    12.98590770823
                ]
            }
        },
        {
            "type": "Feature",
            "properties": {
                "station": "HLRU",
                "public_transport": "platform",
                "destination": "Whitefield (Kadugodi)",
                "name": "Platform 1",
                "color": "purple",
                "ref": "1"
            },
            "geometry": {
                "type": "Point",
                "coordinates": [
                    77.62706000352,
                    12.97723270135
                ]
            }
        },
        {
            "type": "Feature",
            "properties": {
                "public_transport": "platform",
                "ref": "2",
                "name": "Platform 2",
                "destination": "Silk Institute",
                "color": "green",
                "station": "PUTH"
            },
            "geometry": {
                "type": "Point",
                "coordinates": [
                    77.56977019886,
                    12.89537192214
                ]
            }
        },
        {
            "type": "Feature",
            "properties": {
                "name": "KIADB Industrial Area Side",
                "railway": "subway_entrance",
                "ref": "A",
                "station": "SSHP"
            },
            "geometry": {
                "type": "Point",
                "coordinates": [
                    77.72741049259,
                    12.98123779353
                ]
            }
        },
        {
            "type": "Feature",
            "properties": {
                "station": "DSH",
                "ref": "B",
                "railway": "subway_entrance",
                "name": "Jalahalli Cross Side"
            },
            "geometry": {
                "type": "Point",
                "coordinates": [
                    77.51284450158,
                    13.04324896603
                ]
            }
        },
        {
            "type": "Feature",
            "properties": {
                "public_transport": "platform",
                "station": "JTPM",
                "destination": "Whitefield (Kadugodi)",
                "name": "Platform 1",
                "color": "purple",
                "ref": "1"
            },
            "geometry": {
                "type": "Point",
                "coordinates": [
                    77.66893890611,
                    12.99679015811
                ]
            }
        },
        {
            "type": "Feature",
            "properties": {
                "highway": "elevator"
            },
            "geometry": {
                "type": "Point",
                "coordinates": [
                    77.58313044772,
                    12.97401417999
                ]
            }
        },
        {
            "type": "Feature",
            "properties": {
                "highway": "elevator"
            },
            "geometry": {
                "type": "Point",
                "coordinates": [
                    77.59664609894,
                    12.98114696746
                ]
            }
        },
        {
            "type": "Feature",
            "properties": {
                "highway": "elevator"
            },
            "geometry": {
                "type": "Point",
                "coordinates": [
                    77.50013619594,
                    13.04828091431
                ]
            }
        },
        {
            "type": "Feature",
            "properties": {
                "highway": "elevator"
            },
            "geometry": {
                "type": "Point",
                "coordinates": [
                    77.56256863341,
                    12.88867672453
                ]
            }
        },
        {
            "type": "Feature",
            "properties": {
                "highway": "elevator"
            },
            "geometry": {
                "type": "Point",
                "coordinates": [
                    77.47667357191,
                    12.90817588699
                ]
            }
        },
        {
            "type": "Feature",
            "properties": {
                "public_transport": "platform",
                "ref": "2",
                "station": "VDSA",
                "destination": "Challaghatta",
                "color": "purple",
                "name": "Platform 2"
            },
            "geometry": {
                "type": "Point",
                "coordinates": [
                    77.59134435871,
                    12.97829681460
                ]
            }
        },
        {
            "type": "Feature",
            "properties": {
                "name": "Vidhana Soudha Side",
                "station": "VDSA",
                "railway": "subway_entrance",
                "ref": "A"
            },
            "geometry": {
                "type": "Point",
                "coordinates": [
                    77.59274348482,
                    12.98013939850
                ]
            }
        },
        {
            "type": "Feature",
            "properties": {
                "name": "Prakash Nagar",
                "ref": "C",
                "station": "SPRU",
                "railway": "subway_entrance"
            },
            "geometry": {
                "type": "Point",
                "coordinates": [
                    77.56382524833,
                    12.99625739808
                ]
            }
        },
        {
            "type": "Feature",
            "properties": {
                "name": "Thalaghattapura Police Station Side",
                "ref": "B",
                "station": "TGTP",
                "railway": "subway_entrance"
            },
            "geometry": {
                "type": "Point",
                "coordinates": [
                    77.53819942340,
                    12.87148362477
                ]
            }
        },
        {
            "type": "Feature",
            "properties": {
                "highway": "elevator"
            },
            "geometry": {
                "type": "Point",
                "coordinates": [
                    77.57337257132,
                    12.90792882344
                ]
            }
        },
        {
            "type": "Feature",
            "properties": {
                "railway": "subway_entrance",
                "ref": "A",
                "station": "SPGD",
                "name": "PNR Nagar Side"
            },
            "geometry": {
                "type": "Point",
                "coordinates": [
                    77.57133810639,
                    12.99011298428
                ]
            }
        },
        {
            "type": "Feature",
            "properties": {
                "highway": "elevator"
            },
            "geometry": {
                "type": "Point",
                "coordinates": [
                    77.51990407571,
                    13.03959987346
                ]
            }
        },
        {
            "type": "Feature",
            "properties": {
                "highway": "elevator"
            },
            "geometry": {
                "type": "Point",
                "coordinates": [
                    77.70343959197,
                    12.99339951547
                ]
            }
        },
        {
            "type": "Feature",
            "properties": {
                "station": "KGIT",
                "ref": "B",
                "name": "Kengeri Side",
                "railway": "subway_entrance"
            },
            "geometry": {
                "type": "Point",
                "coordinates": [
                    77.47634634107,
                    12.90808176888
                ]
            }
        },
        {
            "type": "Feature",
            "properties": {
                "station": "AGPP",
                "public_transport": "platform",
                "ref": "2",
                "destination": "Challaghatta",
                "color": "purple",
                "name": "Platform 2"
            },
            "geometry": {
                "type": "Point",
                "coordinates": [
                    77.53352700591,
                    12.96149799202
                ]
            }
        },
        {
            "type": "Feature",
            "properties": {
                "station": "GDCP",
                "public_transport": "platform",
                "destination": "Whitefield (Kadugodi)",
                "name": "Platform 1",
                "color": "purple",
                "ref": "1"
            },
            "geometry": {
                "type": "Point",
                "coordinates": [
                    77.70439188345,
                    12.99332853866
                ]
            }
        },
        {
            "type": "Feature",
            "properties": {
                "highway": "elevator"
            },
            "geometry": {
                "type": "Point",
                "coordinates": [
                    77.58020013437,
                    12.94657495744
                ]
            }
        },
        {
            "type": "Feature",
            "properties": {
                "station": "SVRD",
                "railway": "subway_entrance",
                "ref": "A",
                "name": "Isolation Hospital Side"
            },
            "geometry": {
                "type": "Point",
                "coordinates": [
                    77.64444239371,
                    12.98586131595
                ]
            }
        },
        {
            "type": "Feature",
            "properties": {
                "highway": "elevator"
            },
            "geometry": {
                "type": "Point",
                "coordinates": [
                    77.69263800200,
                    12.99638970568
                ]
            }
        },
        {
            "type": "Feature",
            "properties": {
                "station": "AGPP",
                "public_transport": "platform",
                "destination": "Whitefield (Kadugodi)",
                "name": "Platform 1",
                "color": "purple",
                "ref": "1"
            },
            "geometry": {
                "type": "Point",
                "coordinates": [
                    77.53379790903,
                    12.96255137901
                ]
            }
        },
        {
            "type": "Feature",
            "properties": {
                "public_transport": "platform",
                "station": "LBGH",
                "ref": "2",
                "name": "Platform 2",
                "destination": "Silk Institute",
                "color": "green"
            },
            "geometry": {
                "type": "Point",
                "coordinates": [
                    77.58007609633,
                    12.94565310390
                ]
            }
        },
        {
            "type": "Feature",
            "properties": {
                "public_transport": "platform",
                "destination": "Madavara",
                "name": "Platform 1",
                "ref": "1",
                "station": "NGSA",
                "color": "green"
            },
            "geometry": {
                "type": "Point",
                "coordinates": [
                    77.49936907410,
                    13.04806470200
                ]
            }
        },
        {
            "type": "Feature",
            "properties": {
                "ref": "B",
                "railway": "subway_entrance",
                "name": "Sri Sathya Sai Hospital Side",
                "station": "SSHP"
            },
            "geometry": {
                "type": "Point",
                "coordinates": [
                    77.72780477867,
                    12.98115742211
                ]
            }
        },
        {
            "type": "Feature",
            "properties": {
                "name": "Cubbon Park/BSNL Office",
                "station": "CBPK",
                "ref": "C",
                "railway": "subway_entrance"
            },
            "geometry": {
                "type": "Point",
                "coordinates": [
                    77.59695723519,
                    12.98105679609
                ]
            }
        },
        {
            "type": "Feature",
            "properties": {
                "name": "Konankunte Village Side",
                "railway": "subway_entrance",
                "ref": "A",
                "station": "APRC"
            },
            "geometry": {
                "type": "Point",
                "coordinates": [
                    77.56284892492,
                    12.88883164075
                ]
            }
        },
        {
            "type": "Feature",
            "properties": {
                "station": "LBGH",
                "railway": "subway_entrance",
                "ref": "A"
            },
            "geometry": {
                "type": "Point",
                "coordinates": [
                    77.58016325466,
                    12.94683113117
                ]
            }
        },
        {
            "type": "Feature",
            "properties": {
                "ref": "C",
                "station": "VDSA",
                "railway": "subway_entrance",
                "name": "GPO Side"
            },
            "geometry": {
                "type": "Point",
                "coordinates": [
                    77.59229153261,
                    12.97902989177
                ]
            }
        },
        {
            "type": "Feature",
            "properties": {
                "highway": "elevator"
            },
            "geometry": {
                "type": "Point",
                "coordinates": [
                    77.72764786944,
                    12.98086861224
                ]
            }
        },
        {
            "type": "Feature",
            "properties": {
                "name": "Doddakallasandra Side",
                "railway": "subway_entrance",
                "ref": "A",
                "station": "KLPK"
            },
            "geometry": {
                "type": "Point",
                "coordinates": [
                    77.55281612143,
                    12.88447366904
                ]
            }
        },
        {
            "type": "Feature",
            "properties": {
                "name": "80ft Road Side",
                "ref": "C",
                "station": "SVRD",
                "railway": "subway_entrance"
            },
            "geometry": {
                "type": "Point",
                "coordinates": [
                    77.64490507476,
                    12.98546862029
                ]
            }
        },
        {
            "type": "Feature",
            "properties": {
                "public_transport": "platform",
                "ref": "2",
                "station": "BSNK",
                "name": "Platform 2",
                "destination": "Silk Institute",
                "color": "green"
            },
            "geometry": {
                "type": "Point",
                "coordinates": [
                    77.57364492383,
                    12.91481377687
                ]
            }
        },
        {
            "type": "Feature",
            "properties": {
                "public_transport": "platform",
                "ref": "2",
                "station": "JYN",
                "name": "Platform 2",
                "destination": "Silk Institute",
                "color": "green"
            },
            "geometry": {
                "type": "Point",
                "coordinates": [
                    77.58023300824,
                    12.92886650855
                ]
            }
        },
        {
            "type": "Feature",
            "properties": {
                "public_transport": "platform",
                "station": "JTPM",
                "ref": "2",
                "destination": "Challaghatta",
                "color": "purple",
                "name": "Platform 2"
            },
            "geometry": {
                "type": "Point",
                "coordinates": [
                    77.66782733419,
                    12.99611404946
                ]
            }
        },
        {
            "type": "Feature",
            "properties": {
                "name": "80ft Road Side",
                "ref": "E",
                "station": "SVRD",
                "railway": "subway_entrance"
            },
            "geometry": {
                "type": "Point",
                "coordinates": [
                    77.64426134460,
                    12.98521052546
                ]
            }
        },
        {
            "type": "Feature",
            "properties": {
                "station": "DJNR",
                "ref": "C",
                "name": "Shaneshwara Temple Side",
                "railway": "subway_entrance"
            },
            "geometry": {
                "type": "Point",
                "coordinates": [
                    77.53673896059,
                    12.95245644572
                ]
            }
        },
        {
            "type": "Feature",
            "properties": {
                "public_transport": "platform",
                "station": "MYRD",
                "destination": "Whitefield (Kadugodi)",
                "name": "Platform 1",
                "color": "purple",
                "ref": "1"
            },
            "geometry": {
                "type": "Point",
                "coordinates": [
                    77.53058998704,
                    12.94694615795
                ]
            }
        },
        {
            "type": "Feature",
            "properties": {
                "highway": "elevator"
            },
            "geometry": {
                "type": "Point",
                "coordinates": [
                    77.71532446012,
                    12.97750872254
                ]
            }
        },
        {
            "type": "Feature",
            "properties": {
                "public_transport": "platform",
                "destination": "Madavara",
                "station": "PYID",
                "name": "Platform 1",
                "ref": "1",
                "color": "green"
            },
            "geometry": {
                "type": "Point",
                "coordinates": [
                    77.52498417556,
                    13.03653344827
                ]
            }
        },
        {
            "type": "Feature",
            "properties": {
                "highway": "elevator"
            },
            "geometry": {
                "type": "Point",
                "coordinates": [
                    77.56382591955,
                    12.99664876928
                ]
            }
        },
        {
            "type": "Feature",
            "properties": {
                "station": "NYHM",
                "name": "Pantarapalya Side",
                "ref": "A",
                "railway": "subway_entrance"
            },
            "geometry": {
                "type": "Point",
                "coordinates": [
                    77.52536371216,
                    12.94159780294
                ]
            }
        },
        {
            "type": "Feature",
            "properties": {
                "highway": "elevator"
            },
            "geometry": {
                "type": "Point",
                "coordinates": [
                    77.53846496210,
                    12.87167319849
                ]
            }
        },
        {
            "type": "Feature",
            "properties": {
                "station": "TGTP",
                "railway": "subway_entrance",
                "ref": "A",
                "name": "Govt Model Primary School SIde"
            },
            "geometry": {
                "type": "Point",
                "coordinates": [
                    77.53849848971,
                    12.87124829167
                ]
            }
        },
        {
            "type": "Feature",
            "properties": {
                "public_transport": "platform",
                "station": "MLSD",
                "destination": "Whitefield (Kadugodi)",
                "name": "Platform 1",
                "color": "purple",
                "ref": "1"
            },
            "geometry": {
                "type": "Point",
                "coordinates": [
                    77.48813866496,
                    12.91514194191
                ]
            }
        },
        {
            "type": "Feature",
            "properties": {
                "ref": "G",
                "station": "YPM",
                "name": "Railway Station Side",
                "railway": "subway_entrance"
            },
            "geometry": {
                "type": "Point",
                "coordinates": [
                    77.55047187075,
                    13.02314758569
                ]
            }
        },
        {
            "type": "Feature",
            "properties": {
                "name": "Cubbon Park Side",
                "station": "VDSA",
                "ref": "D",
                "railway": "subway_entrance"
            },
            "geometry": {
                "type": "Point",
                "coordinates": [
                    77.59092226490,
                    12.97756491711
                ]
            }
        },
        {
            "type": "Feature",
            "properties": {
                "public_transport": "platform",
                "destination": "Madavara",
                "name": "Platform 1",
                "station": "JYN",
                "ref": "1",
                "color": "green"
            },
            "geometry": {
                "type": "Point",
                "coordinates": [
                    77.58008679154,
                    12.93009470122
                ]
            }
        },
        {
            "type": "Feature",
            "properties": {
                "station": "YPI",
                "railway": "subway_entrance",
                "ref": "A",
                "name": "GG Palya Side"
            },
            "geometry": {
                "type": "Point",
                "coordinates": [
                    77.54114984393,
                    13.02786310580
                ]
            }
        },
        {
            "type": "Feature",
            "properties": {
                "ref": "C",
                "station": "YPI",
                "railway": "subway_entrance",
                "name": "GG Palya Side"
            },
            "geometry": {
                "type": "Point",
                "coordinates": [
                    77.54148244590,
                    13.02833346819
                ]
            }
        },
        {
            "type": "Feature",
            "properties": {
                "highway": "elevator"
            },
            "geometry": {
                "type": "Point",
                "coordinates": [
                    77.75789648026,
                    12.99504734428
                ]
            }
        },
        {
            "type": "Feature",
            "properties": {
                "highway": "elevator"
            },
            "geometry": {
                "type": "Point",
                "coordinates": [
                    77.74731114373,
                    12.98566202853
                ]
            }
        },
        {
            "type": "Feature",
            "properties": {
                "highway": "elevator"
            },
            "geometry": {
                "type": "Point",
                "coordinates": [
                    77.71116435394,
                    12.98861408922
                ]
            }
        },
        {
            "type": "Feature",
            "properties": {
                "highway": "elevator"
            },
            "geometry": {
                "type": "Point",
                "coordinates": [
                    77.67718579587,
                    12.99983819786
                ]
            }
        },
        {
            "type": "Feature",
            "properties": {
                "station": "RRRN",
                "ref": "B",
                "railway": "subway_entrance",
                "name": "Sports Authority of India Side"
            },
            "geometry": {
                "type": "Point",
                "coordinates": [
                    77.51953661308,
                    12.93688196194
                ]
            }
        },
        {
            "type": "Feature",
            "properties": {
                "name": "Bangalore University Side",
                "station": "VSWA",
                "railway": "subway_entrance",
                "ref": "A"
            },
            "geometry": {
                "type": "Point",
                "coordinates": [
                    77.58451848149,
                    12.97485842494
                ]
            }
        },
        {
            "type": "Feature",
            "properties": {
                "station": "BIET",
                "public_transport": "platform",
                "ref": "2",
                "name": "Platform 2",
                "destination": "Silk Institute",
                "color": "green"
            },
            "geometry": {
                "type": "Point",
                "coordinates": [
                    77.47346966922,
                    13.05737710043
                ]
            }
        },
        {
            "type": "Feature",
            "properties": {
                "station": "JPN",
                "ref": "B",
                "railway": "subway_entrance",
                "name": "JP Nagar 6th Phase Side"
            },
            "geometry": {
                "type": "Point",
                "coordinates": [
                    77.57339939408,
                    12.90793470526
                ]
            }
        },
        {
            "type": "Feature",
            "properties": {
                "public_transport": "platform",
                "destination": "Madavara",
                "name": "Platform 1",
                "station": "APTS",
                "ref": "1",
                "color": "green"
            },
            "geometry": {
                "type": "Point",
                "coordinates": [
                    77.51159994722,
                    13.04340575560
                ]
            }
        },
        {
            "type": "Feature",
            "properties": {
                "public_transport": "platform",
                "ref": "2",
                "destination": "Challaghatta",
                "color": "purple",
                "name": "Platform 2",
                "station": "SSHP"
            },
            "geometry": {
                "type": "Point",
                "coordinates": [
                    77.72754294359,
                    12.98056653444
                ]
            }
        },
        {
            "type": "Feature",
            "properties": {
                "name": "Kengeri Satellite Town Side",
                "station": "KGIT",
                "railway": "subway_entrance",
                "ref": "A"
            },
            "geometry": {
                "type": "Point",
                "coordinates": [
                    77.47657298774,
                    12.90774320012
                ]
            }
        },
        {
            "type": "Feature",
            "properties": {
                "public_transport": "platform",
                "destination": "Madavara",
                "name": "Platform 1",
                "ref": "1",
                "station": "SECE",
                "color": "green"
            },
            "geometry": {
                "type": "Point",
                "coordinates": [
                    77.58001303079,
                    12.93879982996
                ]
            }
        },
        {
            "type": "Feature",
            "properties": {
                "name": "Vasanthapura Main Road Side",
                "ref": "B",
                "railway": "subway_entrance",
                "station": "APRC"
            },
            "geometry": {
                "type": "Point",
                "coordinates": [
                    77.56259679727,
                    12.88910160114
                ]
            }
        },
        {
            "type": "Feature",
            "properties": {
                "ref": "B",
                "station": "SVRD",
                "railway": "subway_entrance",
                "name": "Isolation Hospital Side"
            },
            "geometry": {
                "type": "Point",
                "coordinates": [
                    77.64475755326,
                    12.98603773476
                ]
            }
        },
        {
            "type": "Feature",
            "properties": {
                "ref": "B",
                "station": "APTS",
                "railway": "subway_entrance",
                "name": "Jyothi Farm"
            },
            "geometry": {
                "type": "Point",
                "coordinates": [
                    77.52969061939,
                    12.86157705321
                ]
            }
        },
        {
            "type": "Feature",
            "properties": {
                "station": "AGPP",
                "ref": "C",
                "name": "Chandra Layout Side",
                "railway": "subway_entrance"
            },
            "geometry": {
                "type": "Point",
                "coordinates": [
                    77.53335534990,
                    12.96162083861
                ]
            }
        },
        {
            "type": "Feature",
            "properties": {
                "station": "KGWA",
                "name": "BMTC Bus Stand",
                "ref": "D",
                "railway": "subway_entrance"
            },
            "geometry": {
                "type": "Point",
                "coordinates": [
                    77.57317006320,
                    12.97614044771
                ]
            }
        },
        {
            "type": "Feature",
            "properties": {
                "public_transport": "platform",
                "station": "KGWA",
                "destination": "Whitefield (Kadugodi)",
                "name": "Platform 1",
                "color": "purple",
                "ref": "1"
            },
            "geometry": {
                "type": "Point",
                "coordinates": [
                    77.57330685317,
                    12.97581634943
                ]
            }
        },
        {
            "type": "Feature",
            "properties": {
                "station": "HSLI",
                "ref": "B",
                "name": "Adichunchangiri Mutt Side",
                "railway": "subway_entrance"
            },
            "geometry": {
                "type": "Point",
                "coordinates": [
                    77.54581421345,
                    12.97405208049
                ]
            }
        },
        {
            "type": "Feature",
            "properties": {
                "station": "JLHL",
                "railway": "subway_entrance",
                "ref": "A",
                "name": "Jalahalli Cross Side"
            },
            "geometry": {
                "type": "Point",
                "coordinates": [
                    77.51933812961,
                    13.03965605396
                ]
            }
        },
        {
            "type": "Feature",
            "properties": {
                "ref": "E",
                "station": "KRAM",
                "railway": "subway_entrance"
            },
            "geometry": {
                "type": "Point",
                "coordinates": [
                    77.57522329554,
                    12.96161430002
                ]
            }
        },
        {
            "type": "Feature",
            "properties": {
                "ref": "B",
                "station": "KDNH",
                "railway": "subway_entrance",
                "name": "Kundalahalli Side"
            },
            "geometry": {
                "type": "Point",
                "coordinates": [
                    77.71563023195,
                    12.97738065117
                ]
            }
        },
        {
            "type": "Feature",
            "properties": {
                "public_transport": "platform",
                "station": "RRRN",
                "ref": "2",
                "destination": "Challaghatta",
                "color": "purple",
                "name": "Platform 2"
            },
            "geometry": {
                "type": "Point",
                "coordinates": [
                    77.51895724654,
                    12.93625457976
                ]
            }
        },
        {
            "type": "Feature",
            "properties": {
                "station": "YPM",
                "ref": "D",
                "name": "Railway Station Side",
                "railway": "subway_entrance"
            },
            "geometry": {
                "type": "Point",
                "coordinates": [
                    77.54968732327,
                    13.02364801816
                ]
            }
        },
        {
            "type": "Feature",
            "properties": {
                "highway": "elevator"
            },
            "geometry": {
                "type": "Point",
                "coordinates": [
                    77.75384902820,
                    12.98694138982
                ]
            }
        },
        {
            "type": "Feature",
            "properties": {
                "name": "BWSSB Water Tank Side",
                "station": "RJNR",
                "railway": "subway_entrance",
                "ref": "A"
            },
            "geometry": {
                "type": "Point",
                "coordinates": [
                    77.54953174711,
                    12.99949290357
                ]
            }
        },
        {
            "type": "Feature",
            "properties": {
                "highway": "elevator"
            },
            "geometry": {
                "type": "Point",
                "coordinates": [
                    77.52963177793,
                    12.86134579712
                ]
            }
        },
        {
            "type": "Feature",
            "properties": {
                "name": "Shakambari Side",
                "station": "BSNK",
                "railway": "subway_entrance",
                "ref": "A"
            },
            "geometry": {
                "type": "Point",
                "coordinates": [
                    77.57400255617,
                    12.91622198483
                ]
            }
        },
        {
            "type": "Feature",
            "properties": {
                "ref": "B",
                "name": "KEB Colony Side",
                "station": "DKIA",
                "railway": "subway_entrance"
            },
            "geometry": {
                "type": "Point",
                "coordinates": [
                    77.71106242061,
                    12.98853177046
                ]
            }
        },
        {
            "type": "Feature",
            "properties": {
                "public_transport": "platform",
                "station": "HSLI",
                "ref": "2",
                "destination": "Challaghatta",
                "color": "purple",
                "name": "Platform 2"
            },
            "geometry": {
                "type": "Point",
                "coordinates": [
                    77.54484861016,
                    12.97415141032
                ]
            }
        },
        {
            "type": "Feature",
            "properties": {
                "station": "VJN",
                "ref": "B",
                "railway": "subway_entrance",
                "name": "Hosahalli Side"
            },
            "geometry": {
                "type": "Point",
                "coordinates": [
                    77.53732502192,
                    12.97025690519
                ]
            }
        },
        {
            "type": "Feature",
            "properties": {
                "public_transport": "platform",
                "destination": "Madavara",
                "name": "Platform 1",
                "ref": "1",
                "station": "KRMT",
                "color": "green"
            },
            "geometry": {
                "type": "Point",
                "coordinates": [
                    77.57486521661,
                    12.96216452251
                ]
            }
        },
        {
            "type": "Feature",
            "properties": {
                "public_transport": "platform",
                "destination": "Whitefield (Kadugodi)",
                "name": "Platform 1",
                "color": "purple",
                "ref": "1",
                "station": "SSHP"
            },
            "geometry": {
                "type": "Point",
                "coordinates": [
                    77.72765086866,
                    12.98180058411
                ]
            }
        },
        {
            "type": "Feature",
            "properties": {
                "public_transport": "platform",
                "ref": "2",
                "station": "PYID",
                "name": "Platform 2",
                "destination": "Silk Institute",
                "color": "green"
            },
            "geometry": {
                "type": "Point",
                "coordinates": [
                    77.52618312299,
                    13.03610490296
                ]
            }
        },
        {
            "type": "Feature",
            "properties": {
                "name": "Jayanagar 7th Block Side",
                "ref": "C",
                "station": "JYN",
                "railway": "subway_entrance"
            },
            "geometry": {
                "type": "Point",
                "coordinates": [
                    77.58001707427,
                    12.92998383760
                ]
            }
        },
        {
            "type": "Feature",
            "properties": {
                "station": "VJN",
                "public_transport": "platform",
                "destination": "Whitefield (Kadugodi)",
                "name": "Platform 1",
                "color": "purple",
                "ref": "1"
            },
            "geometry": {
                "type": "Point",
                "coordinates": [
                    77.53747521758,
                    12.97133117307
                ]
            }
        },
        {
            "type": "Feature",
            "properties": {
                "public_transport": "platform",
                "destination": "Madavara",
                "station": "YPM",
                "name": "Platform 1",
                "ref": "1",
                "color": "green"
            },
            "geometry": {
                "type": "Point",
                "coordinates": [
                    77.54930912912,
                    13.02346248245
                ]
            }
        },
        {
            "type": "Feature",
            "properties": {
                "name": "Vikasa Soudha Side",
                "station": "VDSA",
                "ref": "E",
                "railway": "subway_entrance"
            },
            "geometry": {
                "type": "Point",
                "coordinates": [
                    77.59011894330,
                    12.97763287330
                ]
            }
        },
        {
            "type": "Feature",
            "properties": {
                "public_transport": "platform",
                "destination": "Whitefield (Kadugodi)",
                "name": "Platform 1",
                "color": "purple",
                "ref": "1",
                "station": "BRCS"
            },
            "geometry": {
                "type": "Point",
                "coordinates": [
                    77.56699084623,
                    12.97617994310
                ]
            }
        },
        {
            "type": "Feature",
            "properties": {
                "public_transport": "platform",
                "ref": "2",
                "name": "Platform 2",
                "station": "SPGD",
                "destination": "Silk Institute",
                "color": "green"
            },
            "geometry": {
                "type": "Point",
                "coordinates": [
                    77.57129787863,
                    12.99000582274
                ]
            }
        },
        {
            "type": "Feature",
            "properties": {
                "highway": "elevator"
            },
            "geometry": {
                "type": "Point",
                "coordinates": [
                    77.59023427695,
                    12.97782106090
                ]
            }
        },
        {
            "type": "Feature",
            "properties": {
                "public_transport": "platform",
                "station": "MAGR",
                "ref": "2",
                "destination": "Challaghatta",
                "color": "purple",
                "name": "Platform 2"
            },
            "geometry": {
                "type": "Point",
                "coordinates": [
                    77.60612258059,
                    12.97562310938
                ]
            }
        },
        {
            "type": "Feature",
            "properties": {
                "station": "TTY",
                "name": "South Side",
                "railway": "subway_entrance",
                "ref": "A"
            },
            "geometry": {
                "type": "Point",
                "coordinates": [
                    77.61681362920,
                    12.97287458715
                ]
            }
        },
        {
            "type": "Feature",
            "properties": {
                "name": "Raghuvanahalli Side",
                "railway": "subway_entrance",
                "ref": "A",
                "station": "VJRH"
            },
            "geometry": {
                "type": "Point",
                "coordinates": [
                    77.54492573306,
                    12.87740544796
                ]
            }
        },
        {
            "type": "Feature",
            "properties": {
                "railway": "subway_entrance",
                "ref": "A",
                "station": "VDHP"
            },
            "geometry": {
                "type": "Point",
                "coordinates": [
                    77.72488116682,
                    12.97665012426
                ]
            }
        },
        {
            "type": "Feature",
            "properties": {
                "name": "Magadi Road/Leprosy Hospital",
                "ref": "C",
                "railway": "subway_entrance",
                "station": "BRCS"
            },
            "geometry": {
                "type": "Point",
                "coordinates": [
                    77.56536349520,
                    12.97558895188
                ]
            }
        },
        {
            "type": "Feature",
            "properties": {
                "highway": "elevator"
            },
            "geometry": {
                "type": "Point",
                "coordinates": [
                    77.53022253379,
                    12.86190146694
                ]
            }
        },
        {
            "type": "Feature",
            "properties": {
                "public_transport": "platform",
                "destination": "Madavara",
                "name": "Platform 1",
                "ref": "1",
                "color": "green",
                "station": "KLPK"
            },
            "geometry": {
                "type": "Point",
                "coordinates": [
                    77.55336003293,
                    12.88491820216
                ]
            }
        },
        {
            "type": "Feature",
            "properties": {
                "station": "JPN",
                "ref": "C",
                "railway": "subway_entrance",
                "name": "JP Nagar 6th Phase Side"
            },
            "geometry": {
                "type": "Point",
                "coordinates": [
                    77.57341146402,
                    12.90727325351
                ]
            }
        },
        {
            "type": "Feature",
            "properties": {
                "public_transport": "platform",
                "ref": "2",
                "station": "TGTP",
                "name": "Platform 2",
                "destination": "Silk Institute",
                "color": "green"
            },
            "geometry": {
                "type": "Point",
                "coordinates": [
                    77.51313954055,
                    13.04313661058
                ]
            }
        },
        {
            "type": "Feature",
            "properties": {
                "ref": "B",
                "station": "NYHM",
                "railway": "subway_entrance",
                "name": "Nayandahalli Railway Station Side"
            },
            "geometry": {
                "type": "Point",
                "coordinates": [
                    77.52491444215,
                    12.94180954315
                ]
            }
        },
        {
            "type": "Feature",
            "properties": {
                "name": "Bayanapalya Side",
                "ref": "B",
                "railway": "subway_entrance",
                "station": "VJRH"
            },
            "geometry": {
                "type": "Point",
                "coordinates": [
                    77.54458710417,
                    12.87754860544
                ]
            }
        },
        {
            "type": "Feature",
            "properties": {
                "station": "BGUC",
                "name": "Kenchenahalli Side",
                "ref": "A",
                "railway": "subway_entrance"
            },
            "geometry": {
                "type": "Point",
                "coordinates": [
                    77.51219540566,
                    12.93511742110
                ]
            }
        },
        {
            "type": "Feature",
            "properties": {
                "station": "MAGR",
                "ref": "C",
                "name": "MG Road Side",
                "railway": "subway_entrance"
            },
            "geometry": {
                "type": "Point",
                "coordinates": [
                    77.60669097170,
                    12.97525962282
                ]
            }
        },
        {
            "type": "Feature",
            "properties": {
                "name": "APMC Market Side",
                "station": "YPM",
                "railway": "subway_entrance",
                "ref": "A"
            },
            "geometry": {
                "type": "Point",
                "coordinates": [
                    77.55038200736,
                    13.02257137911
                ]
            }
        },
        {
            "type": "Feature",
            "properties": {
                "station": "MYRD",
                "ref": "C",
                "name": "Outer Ring Road Side",
                "railway": "subway_entrance"
            },
            "geometry": {
                "type": "Point",
                "coordinates": [
                    77.53066777110,
                    12.94623122198
                ]
            }
        },
        {
            "type": "Feature",
            "properties": {
                "station": "JPN",
                "name": "Outer Ring Road Side",
                "ref": "D",
                "railway": "subway_entrance"
            },
            "geometry": {
                "type": "Point",
                "coordinates": [
                    77.57300645046,
                    12.90664709501
                ]
            }
        },
        {
            "type": "Feature",
            "properties": {
                "public_transport": "platform",
                "ref": "2",
                "station": "MDVP",
                "destination": "Challaghatta",
                "color": "purple",
                "name": "Platform 2"
            },
            "geometry": {
                "type": "Point",
                "coordinates": [
                    77.69207843322,
                    12.99667406865
                ]
            }
        },
        {
            "type": "Feature",
            "properties": {
                "public_transport": "platform",
                "destination": "Whitefield (Kadugodi)",
                "station": "VSWA",
                "name": "Platform 1",
                "color": "purple",
                "ref": "1"
            },
            "geometry": {
                "type": "Point",
                "coordinates": [
                    77.58411951467,
                    12.97448205915
                ]
            }
        },
        {
            "type": "Feature",
            "properties": {
                "name": "Jayanagar 4th Block Side",
                "ref": "B",
                "station": "JYN",
                "railway": "subway_entrance"
            },
            "geometry": {
                "type": "Point",
                "coordinates": [
                    77.58032083444,
                    12.92895841572
                ]
            }
        },
        {
            "type": "Feature",
            "properties": {
                "name": "Gayahtri Nagar",
                "railway": "subway_entrance",
                "ref": "A",
                "station": "KVPR"
            },
            "geometry": {
                "type": "Point",
                "coordinates": [
                    77.55722029924,
                    12.99856904038
                ]
            }
        },
        {
            "type": "Feature",
            "properties": {
                "name": "Kamaraj Road Side",
                "station": "MAGR",
                "ref": "B",
                "railway": "subway_entrance"
            },
            "geometry": {
                "type": "Point",
                "coordinates": [
                    77.60729446873,
                    12.97532104533
                ]
            }
        },
        {
            "type": "Feature",
            "properties": {
                "public_transport": "platform",
                "ref": "2",
                "destination": "Challaghatta",
                "color": "purple",
                "name": "Platform 2",
                "station": "BRCS"
            },
            "geometry": {
                "type": "Point",
                "coordinates": [
                    77.56501287566,
                    12.97577423503
                ]
            }
        },
        {
            "type": "Feature",
            "properties": {
                "public_transport": "platform",
                "destination": "Madavara",
                "name": "Platform 1",
                "ref": "1",
                "color": "green",
                "station": "APRC"
            },
            "geometry": {
                "type": "Point",
                "coordinates": [
                    77.56314519319,
                    12.88942404798
                ]
            }
        },
        {
            "type": "Feature",
            "properties": {
                "railway": "subway_entrance",
                "ref": "A",
                "name": "Manjunath Nagar Side",
                "station": "NGSA"
            },
            "geometry": {
                "type": "Point",
                "coordinates": [
                    77.49964803323,
                    13.04819926011
                ]
            }
        },
        {
            "type": "Feature",
            "properties": {
                "name": "Magadi Road/Leprosy Hospital",
                "ref": "D",
                "railway": "subway_entrance",
                "station": "BRCS"
            },
            "geometry": {
                "type": "Point",
                "coordinates": [
                    77.56519317493,
                    12.97538900214
                ]
            }
        },
        {
            "type": "Feature",
            "properties": {
                "highway": "elevator"
            },
            "geometry": {
                "type": "Point",
                "coordinates": [
                    77.70410612091,
                    12.99343741170
                ]
            }
        },
        {
            "type": "Feature",
            "properties": {
                "public_transport": "platform",
                "station": "MIRD",
                "ref": "2",
                "destination": "Challaghatta",
                "color": "purple",
                "name": "Platform 2"
            },
            "geometry": {
                "type": "Point",
                "coordinates": [
                    77.55473255039,
                    12.97549486706
                ]
            }
        },
        {
            "type": "Feature",
            "properties": {
                "ref": "A'",
                "station": "KGWA",
                "railway": "subway_entrance"
            },
            "geometry": {
                "type": "Point",
                "coordinates": [
                    77.57152050465,
                    12.97608555968
                ]
            }
        },
        {
            "type": "Feature",
            "properties": {
                "public_transport": "platform",
                "ref": "2",
                "name": "Platform 2",
                "station": "VJRH",
                "destination": "Silk Institute",
                "color": "green"
            },
            "geometry": {
                "type": "Point",
                "coordinates": [
                    77.54459067606,
                    12.87690275302
                ]
            }
        },
        {
            "type": "Feature",
            "properties": {
                "station": "JPN",
                "railway": "subway_entrance",
                "ref": "A",
                "name": "JP Nagar 6th Phase Side"
            },
            "geometry": {
                "type": "Point",
                "coordinates": [
                    77.57329747014,
                    12.90823078931
                ]
            }
        },
        {
            "type": "Feature",
            "properties": {
                "ref": "C",
                "name": "Vanivilas Hospital Side",
                "station": "KRAM",
                "railway": "subway_entrance"
            },
            "geometry": {
                "type": "Point",
                "coordinates": [
                    77.57428184018,
                    12.96002506331
                ]
            }
        },
        {
            "type": "Feature",
            "properties": {
                "public_transport": "platform",
                "ref": "2",
                "station": "YPM",
                "name": "Platform 2",
                "destination": "Silk Institute",
                "color": "green"
            },
            "geometry": {
                "type": "Point",
                "coordinates": [
                    77.55043968022,
                    13.02297903685
                ]
            }
        },
        {
            "type": "Feature",
            "properties": {
                "station": "VJN",
                "public_transport": "platform",
                "ref": "2",
                "destination": "Challaghatta",
                "color": "purple",
                "name": "Platform 2"
            },
            "geometry": {
                "type": "Point",
                "coordinates": [
                    77.53726868749,
                    12.97018111348
                ]
            }
        },
        {
            "type": "Feature",
            "properties": {
                "ref": "E",
                "railway": "subway_entrance",
                "name": "Yelachenahalli Side",
                "station": "PUTH"
            },
            "geometry": {
                "type": "Point",
                "coordinates": [
                    77.57007278435,
                    12.89630087338
                ]
            }
        },
        {
            "type": "Feature",
            "properties": {
                "public_transport": "platform",
                "station": "TTY",
                "destination": "Whitefield (Kadugodi)",
                "name": "Platform 1",
                "color": "purple",
                "ref": "1"
            },
            "geometry": {
                "type": "Point",
                "coordinates": [
                    77.61754850237,
                    12.97300365941
                ]
            }
        },
        {
            "type": "Feature",
            "properties": {
                "ref": "B",
                "station": "PATG",
                "name": "Dubasipalya Side",
                "railway": "subway_entrance"
            },
            "geometry": {
                "type": "Point",
                "coordinates": [
                    77.49818757042,
                    12.92445539855
                ]
            }
        },
        {
            "type": "Feature",
            "properties": {
                "public_transport": "platform",
                "ref": "2",
                "name": "Platform 2",
                "station": "SSFY",
                "destination": "Silk Institute",
                "color": "green"
            },
            "geometry": {
                "type": "Point",
                "coordinates": [
                    77.55411296547,
                    13.01381952453
                ]
            }
        },
        {
            "type": "Feature",
            "properties": {
                "name": "Chickpete (BVK Iyengar Road) Side",
                "station": "CKPE",
                "railway": "subway_entrance",
                "ref": "A"
            },
            "geometry": {
                "type": "Point",
                "coordinates": [
                    77.57473378838,
                    12.96764834464
                ]
            }
        },
        {
            "type": "Feature",
            "properties": {
                "public_transport": "platform",
                "station": "KGIT",
                "ref": "2",
                "destination": "Challaghatta",
                "color": "purple",
                "name": "Platform 2"
            },
            "geometry": {
                "type": "Point",
                "coordinates": [
                    77.47594348329,
                    12.90748489521
                ]
            }
        },
        {
            "type": "Feature",
            "properties": {
                "station": "AGPP",
                "ref": "B",
                "name": "Hampi Nagar Side",
                "railway": "subway_entrance"
            },
            "geometry": {
                "type": "Point",
                "coordinates": [
                    77.53392934531,
                    12.96218281692
                ]
            }
        },
        {
            "type": "Feature",
            "properties": {
                "public_transport": "platform",
                "ref": "2",
                "name": "Platform 2",
                "station": "KRMT",
                "destination": "Silk Institute",
                "color": "green"
            },
            "geometry": {
                "type": "Point",
                "coordinates": [
                    77.57465868652,
                    12.95968395507
                ]
            }
        },
        {
            "type": "Feature",
            "properties": {
                "name": "South End Circle Side",
                "ref": "B",
                "railway": "subway_entrance",
                "station": "SECE"
            },
            "geometry": {
                "type": "Point",
                "coordinates": [
                    77.58033089273,
                    12.93807007930
                ]
            }
        },
        {
            "type": "Feature",
            "properties": {
                "name": "Banashankari Nagar Side",
                "ref": "B",
                "station": "BSNK",
                "railway": "subway_entrance"
            },
            "geometry": {
                "type": "Point",
                "coordinates": [
                    77.57377859171,
                    12.91542754990
                ]
            }
        },
        {
            "type": "Feature",
            "properties": {
                "public_transport": "platform",
                "ref": "2",
                "station": "NLC",
                "name": "Platform 2",
                "destination": "Silk Institute",
                "color": "green"
            },
            "geometry": {
                "type": "Point",
                "coordinates": [
                    77.57380509434,
                    12.94980154079
                ]
            }
        },
        {
            "type": "Feature",
            "properties": {
                "public_transport": "platform",
                "ref": "2",
                "station": "PATG",
                "destination": "Challaghatta",
                "color": "purple",
                "name": "Platform 2"
            },
            "geometry": {
                "type": "Point",
                "coordinates": [
                    77.49789385915,
                    12.92363845091
                ]
            }
        },
        {
            "type": "Feature",
            "properties": {
                "station": "GDCP",
                "public_transport": "platform",
                "ref": "2",
                "destination": "Challaghatta",
                "color": "purple",
                "name": "Platform 2"
            },
            "geometry": {
                "type": "Point",
                "coordinates": [
                    77.70312566356,
                    12.99351753845
                ]
            }
        },
        {
            "type": "Feature",
            "properties": {
                "highway": "elevator"
            },
            "geometry": {
                "type": "Point",
                "coordinates": [
                    77.48813465171,
                    12.91494062670
                ]
            }
        },
        {
            "type": "Feature",
            "properties": {
                "name": "KR Market Side",
                "ref": "B",
                "station": "CKPE",
                "railway": "subway_entrance"
            },
            "geometry": {
                "type": "Point",
                "coordinates": [
                    77.57501542300,
                    12.96581605837
                ]
            }
        },
        {
            "type": "Feature",
            "properties": {
                "public_transport": "platform",
                "station": "JLHL",
                "destination": "Madavara",
                "name": "Platform 1",
                "ref": "1",
                "color": "green"
            },
            "geometry": {
                "type": "Point",
                "coordinates": [
                    77.51917987525,
                    13.03952279250
                ]
            }
        },
        {
            "type": "Feature",
            "properties": {
                "name": "Seetharampalya Side",
                "station": "DKIA",
                "railway": "subway_entrance",
                "ref": "A"
            },
            "geometry": {
                "type": "Point",
                "coordinates": [
                    77.71147146754,
                    12.98868988250
                ]
            }
        },
        {
            "type": "Feature",
            "properties": {
                "public_transport": "platform",
                "ref": "2",
                "name": "Platform 2",
                "destination": "Silk Institute",
                "color": "green",
                "station": "RVR"
            },
            "geometry": {
                "type": "Point",
                "coordinates": [
                    77.58040869293,
                    12.92095970143
                ]
            }
        },
        {
            "type": "Feature",
            "properties": {
                "public_transport": "platform",
                "destination": "Whitefield (Kadugodi)",
                "name": "Platform 1",
                "color": "purple",
                "station": "SVRD",
                "ref": "1"
            },
            "geometry": {
                "type": "Point",
                "coordinates": [
                    77.64533172772,
                    12.98624045101
                ]
            }
        },
        {
            "type": "Feature",
            "properties": {
                "name": "Prakash Nagar",
                "ref": "B",
                "railway": "subway_entrance",
                "station": "KVPR"
            },
            "geometry": {
                "type": "Point",
                "coordinates": [
                    77.55724847183,
                    12.99827893486
                ]
            }
        },
        {
            "type": "Feature",
            "properties": {
                "station": "VJN",
                "name": "Post Office Side",
                "railway": "subway_entrance",
                "ref": "A"
            },
            "geometry": {
                "type": "Point",
                "coordinates": [
                    77.53740548014,
                    12.97129719411
                ]
            }
        },
        {
            "type": "Feature",
            "properties": {
                "station": "AGPP",
                "name": "Hampi Nagar Side",
                "railway": "subway_entrance",
                "ref": "A"
            },
            "geometry": {
                "type": "Point",
                "coordinates": [
                    77.53398029924,
                    12.96240761678
                ]
            }
        },
        {
            "type": "Feature",
            "properties": {
                "public_transport": "platform",
                "destination": "Madavara",
                "name": "Platform 1",
                "ref": "1",
                "color": "green",
                "station": "RVR"
            },
            "geometry": {
                "type": "Point",
                "coordinates": [
                    77.58012031915,
                    12.92193042617
                ]
            }
        },
        {
            "type": "Feature",
            "properties": {
                "public_transport": "platform",
                "station": "CBPK",
                "ref": "2",
                "destination": "Challaghatta",
                "color": "purple",
                "name": "Platform 2"
            },
            "geometry": {
                "type": "Point",
                "coordinates": [
                    77.59674013556,
                    12.98116013595
                ]
            }
        },
        {
            "type": "Feature",
            "properties": {
                "public_transport": "platform",
                "ref": "2",
                "destination": "Challaghatta",
                "color": "purple",
                "name": "Platform 2",
                "station": "WHTM"
            },
            "geometry": {
                "type": "Point",
                "coordinates": [
                    77.75781731904,
                    12.99487023304
                ]
            }
        },
        {
            "type": "Feature",
            "properties": {
                "public_transport": "platform",
                "destination": "Whitefield (Kadugodi)",
                "name": "Platform 1",
                "color": "purple",
                "ref": "1",
                "station": "VWIA"
            },
            "geometry": {
                "type": "Point",
                "coordinates": [
                    77.70904409058,
                    12.98033086839
                ]
            }
        },
        {
            "type": "Feature",
            "properties": {
                "highway": "elevator"
            },
            "geometry": {
                "type": "Point",
                "coordinates": [
                    77.67839983039,
                    13.00003126790
                ]
            }
        },
        {
            "type": "Feature",
            "properties": {
                "station": "JIDL",
                "public_transport": "platform",
                "ref": "2",
                "name": "Platform 2",
                "destination": "Silk Institute",
                "color": "green"
            },
            "geometry": {
                "type": "Point",
                "coordinates": [
                    77.48855173052,
                    13.05231071559
                ]
            }
        },
        {
            "type": "Feature",
            "properties": {
                "public_transport": "platform",
                "ref": "2",
                "destination": "Challaghatta",
                "color": "purple",
                "station": "SVRD",
                "name": "Platform 2"
            },
            "geometry": {
                "type": "Point",
                "coordinates": [
                    77.64435637727,
                    12.98557758123
                ]
            }
        },
        {
            "type": "Feature",
            "properties": {
                "highway": "elevator"
            },
            "geometry": {
                "type": "Point",
                "coordinates": [
                    77.72757008538,
                    12.98152986873
                ]
            }
        },
        {
            "type": "Feature",
            "properties": {
                "name": "Jaraganahalli Side",
                "railway": "subway_entrance",
                "ref": "A",
                "station": "PUTH"
            },
            "geometry": {
                "type": "Point",
                "coordinates": [
                    77.57082514398,
                    12.89638127084
                ]
            }
        },
        {
            "type": "Feature",
            "properties": {
                "ref": "B",
                "railway": "subway_entrance",
                "name": "Mysore Sandal Soap Factory Side",
                "station": "SSFY"
            },
            "geometry": {
                "type": "Point",
                "coordinates": [
                    77.55386888713,
                    13.01382997519
                ]
            }
        },
        {
            "type": "Feature",
            "properties": {
                "station": "MLSD",
                "name": "Kengeri Bus Terminal Side",
                "ref": "A",
                "railway": "subway_entrance"
            },
            "geometry": {
                "type": "Point",
                "coordinates": [
                    77.48725890979,
                    12.91448703600
                ]
            }
        },
        {
            "type": "Feature",
            "properties": {
                "public_transport": "platform",
                "ref": "2",
                "destination": "Challaghatta",
                "color": "purple",
                "name": "Platform 2",
                "station": "BYPH"
            },
            "geometry": {
                "type": "Point",
                "coordinates": [
                    77.65184651921,
                    12.99045980510
                ]
            }
        },
        {
            "type": "Feature",
            "properties": {
                "public_transport": "platform",
                "destination": "Madavara",
                "name": "Platform 1",
                "ref": "1",
                "station": "SPGD",
                "color": "green"
            },
            "geometry": {
                "type": "Point",
                "coordinates": [
                    77.57007210910,
                    12.99104079406
                ]
            }
        },
        {
            "type": "Feature",
            "properties": {
                "public_transport": "platform",
                "ref": "2",
                "name": "Platform 2",
                "station": "YPI",
                "destination": "Silk Institute",
                "color": "green"
            },
            "geometry": {
                "type": "Point",
                "coordinates": [
                    77.54134833276,
                    13.02820019933
                ]
            }
        },
        {
            "type": "Feature",
            "properties": {
                "station": "KGWA",
                "name": "Railway Station Side",
                "railway": "subway_entrance",
                "ref": "A"
            },
            "geometry": {
                "type": "Point",
                "coordinates": [
                    77.57120399594,
                    12.97569089613
                ]
            }
        },
        {
            "type": "Feature",
            "properties": {
                "public_transport": "platform",
                "ref": "2",
                "name": "Platform 2",
                "destination": "Silk Institute",
                "station": "KVPR",
                "color": "green"
            },
            "geometry": {
                "type": "Point",
                "coordinates": [
                    77.55744158685,
                    12.99845926900
                ]
            }
        },
        {
            "type": "Feature",
            "properties": {
                "highway": "elevator"
            },
            "geometry": {
                "type": "Point",
                "coordinates": [
                    77.60661452740,
                    12.97519166728
                ]
            }
        },
        {
            "type": "Feature",
            "properties": {
                "public_transport": "platform",
                "ref": "2",
                "station": "JLHL",
                "name": "Platform 2",
                "destination": "Silk Institute",
                "color": "green"
            },
            "geometry": {
                "type": "Point",
                "coordinates": [
                    77.52042173803,
                    13.03905505658
                ]
            }
        },
        {
            "type": "Feature",
            "properties": {
                "name": "KR Market Side",
                "ref": "B",
                "station": "KRAM",
                "railway": "subway_entrance"
            },
            "geometry": {
                "type": "Point",
                "coordinates": [
                    77.57498726115,
                    12.96049294820
                ]
            }
        },
        {
            "type": "Feature",
            "properties": {
                "highway": "elevator"
            },
            "geometry": {
                "type": "Point",
                "coordinates": [
                    77.62623891100,
                    12.97634431610
                ]
            }
        },
        {
            "type": "Feature",
            "properties": {
                "public_transport": "platform",
                "station": "BGUC",
                "ref": "2",
                "destination": "Challaghatta",
                "color": "purple",
                "name": "Platform 2"
            },
            "geometry": {
                "type": "Point",
                "coordinates": [
                    77.51162945151,
                    12.93506776017
                ]
            }
        },
        {
            "type": "Feature",
            "properties": {
                "station": "PYID",
                "name": "Police Station Side",
                "railway": "subway_entrance",
                "ref": "A"
            },
            "geometry": {
                "type": "Point",
                "coordinates": [
                    77.52514511079,
                    13.03662229033
                ]
            }
        },
        {
            "type": "Feature",
            "properties": {
                "public_transport": "platform",
                "destination": "Madavara",
                "station": "SPRU",
                "name": "Platform 1",
                "ref": "1",
                "color": "green"
            },
            "geometry": {
                "type": "Point",
                "coordinates": [
                    77.56278186500,
                    12.99635802187
                ]
            }
        },
        {
            "type": "Feature",
            "properties": {
                "station": "MAGR",
                "ref": "D",
                "railway": "subway_entrance",
                "name": "Church Street Side"
            },
            "geometry": {
                "type": "Point",
                "coordinates": [
                    77.60659575328,
                    12.97481659613
                ]
            }
        },
        {
            "type": "Feature",
            "properties": {
                "highway": "elevator"
            },
            "geometry": {
                "type": "Point",
                "coordinates": [
                    77.73754790291,
                    12.98750984752
                ]
            }
        },
        {
            "type": "Feature",
            "properties": {
                "highway": "elevator"
            },
            "geometry": {
                "type": "Point",
                "coordinates": [
                    77.57066488132,
                    12.89614530815
                ]
            }
        },
        {
            "type": "Feature",
            "properties": {
                "name": "KTPO Side",
                "station": "KDNH",
                "railway": "subway_entrance",
                "ref": "A"
            },
            "geometry": {
                "type": "Point",
                "coordinates": [
                    77.71568722956,
                    12.97776486444
                ]
            }
        },
        {
            "type": "Feature",
            "properties": {
                "station": "KRAM",
                "railway": "subway_entrance",
                "ref": "A"
            },
            "geometry": {
                "type": "Point",
                "coordinates": [
                    77.67766355395,
                    12.99986401596
                ]
            }
        },
        {
            "type": "Feature",
            "properties": {
                "public_transport": "platform",
                "destination": "Whitefield (Kadugodi)",
                "station": "MDVP",
                "name": "Platform 1",
                "color": "purple",
                "ref": "1"
            },
            "geometry": {
                "type": "Point",
                "coordinates": [
                    77.69328406734,
                    12.99641831401
                ]
            }
        },
        {
            "type": "Feature",
            "properties": {
                "public_transport": "platform",
                "destination": "Whitefield (Kadugodi)",
                "station": "KRAM",
                "name": "Platform 1",
                "color": "purple",
                "ref": "1"
            },
            "geometry": {
                "type": "Point",
                "coordinates": [
                    77.67824279643,
                    13.00006698007
                ]
            }
        },
        {
            "type": "Feature",
            "properties": {
                "name": "Hesarghatta Cross Side",
                "station": "DSH",
                "railway": "subway_entrance",
                "ref": "A"
            },
            "geometry": {
                "type": "Point",
                "coordinates": [
                    77.51189499959,
                    13.04356122029
                ]
            }
        },
        {
            "type": "Feature",
            "properties": {
                "public_transport": "platform",
                "ref": "2",
                "destination": "Challaghatta",
                "color": "purple",
                "name": "Platform 2",
                "station": "VWIA"
            },
            "geometry": {
                "type": "Point",
                "coordinates": [
                    77.70854917460,
                    12.98145732391
                ]
            }
        },
        {
            "type": "Feature",
            "properties": {
                "ref": "D",
                "station": "CKPE",
                "railway": "subway_entrance",
                "name": "Arcot Srinivasachar Side"
            },
            "geometry": {
                "type": "Point",
                "coordinates": [
                    77.57413029402,
                    12.96747321707
                ]
            }
        },
        {
            "type": "Feature",
            "properties": {
                "railway": "subway_entrance",
                "name": "Jyothy Kendriya Vidyalaya Side",
                "ref": "A",
                "station": "PUTH"
            },
            "geometry": {
                "type": "Point",
                "coordinates": [
                    77.57068633966,
                    12.89613288837
                ]
            }
        },
        {
            "type": "Feature",
            "properties": {
                "station": "LBGH",
                "ref": "C",
                "railway": "subway_entrance"
            },
            "geometry": {
                "type": "Point",
                "coordinates": [
                    77.57982998952,
                    12.94605868684
                ]
            }
        },
        {
            "type": "Feature",
            "properties": {
                "station": "MYRD",
                "ref": "B",
                "railway": "subway_entrance",
                "name": "BHEL Side"
            },
            "geometry": {
                "type": "Point",
                "coordinates": [
                    77.53027349576,
                    12.94684158792
                ]
            }
        },
        {
            "type": "Feature",
            "properties": {
                "highway": "elevator"
            },
            "geometry": {
                "type": "Point",
                "coordinates": [
                    77.70898640022,
                    12.98061639340
                ]
            }
        },
        {
            "type": "Feature",
            "properties": {
                "public_transport": "platform",
                "ref": "2",
                "name": "Platform 2",
                "station": "NGSA",
                "destination": "Silk Institute",
                "color": "green"
            },
            "geometry": {
                "type": "Point",
                "coordinates": [
                    77.50079333246,
                    13.04775375468
                ]
            }
        },
        {
            "type": "Feature",
            "properties": {
                "public_transport": "platform",
                "destination": "Madavara",
                "name": "Platform 1",
                "ref": "1",
                "station": "VJRH",
                "color": "green"
            },
            "geometry": {
                "type": "Point",
                "coordinates": [
                    77.54492685235,
                    12.87808463967
                ]
            }
        },
        {
            "type": "Feature",
            "properties": {
                "public_transport": "platform",
                "ref": "2",
                "name": "Platform 2",
                "station": "MNJN",
                "destination": "Silk Institute",
                "color": "green"
            },
            "geometry": {
                "type": "Point",
                "coordinates": [
                    77.49507754505,
                    13.04999043865
                ]
            }
        },
        {
            "type": "Feature",
            "properties": {
                "public_transport": "platform",
                "destination": "Madavara",
                "name": "Platform 1",
                "ref": "1",
                "color": "green",
                "station": "PUTH"
            },
            "geometry": {
                "type": "Point",
                "coordinates": [
                    77.57050277074,
                    12.89660494874
                ]
            }
        },
        {
            "type": "Feature",
            "properties": {
                "name": "Government Arts and Science College Side",
                "ref": "B",
                "station": "VSWA",
                "railway": "subway_entrance"
            },
            "geometry": {
                "type": "Point",
                "coordinates": [
                    77.58472904429,
                    12.97451209650
                ]
            }
        },