{
    "type": "FeatureCollection",
    "generator": "JOSM",
    "features": [
        {
            "type": "Feature",
            "properties": {
                "name": "Kengeri Satellite Town Side",
                "station": "KGIT",
                "ref": "A",
                "railway": "subway_entrance"
            },
            "geometry": {
                "type": "Point",
                "coordinates": [
                    77.47657298774,
                    12.90774320012
                ]
            }
        },
        {
            "type": "Feature",
            "properties": {
                "station": "PYID",
                "name": "Police Station Side",
                "ref": "A",
                "railway": "subway_entrance"
            },
            "geometry": {
                "type": "Point",
                "coordinates": [
                    77.52514511079,
                    13.03662229033
                ]
            }
        },
        {
            "type": "Feature",
            "properties": {
                "name": "Seetharampalya Side",
                "ref": "A",
                "railway": "subway_entrance",
                "station": "VWIA"
            },
            "geometry": {
                "type": "Point",
                "coordinates": [
                    77.70898237690,
                    12.98092611288
                ]
            }
        },
        {
            "type": "Feature",
            "properties": {
                "name": "Raghuvanahalli Side",
                "ref": "A",
                "railway": "subway_entrance",
                "station": "VJRH"
            },
            "geometry": {
                "type": "Point",
                "coordinates": [
                    77.54492573306,
                    12.87740544796
                ]
            }
        },
        {
            "type": "Feature",
            "properties": {
                "public_transport": "platform",
                "name": "Platform 2",
                "station": "KRMT",
                "destination": "Silk Institute",
                "ref": "2",
                "color": "green"
            },
            "geometry": {
                "type": "Point",
                "coordinates": [
                    77.57454871595,
                    12.95991136323
                ]
            }
        },
        {
            "type": "Feature",
            "properties": {
                "public_transport": "platform",
                "station": "GDCP",
                "destination": "Whitefield (Kadugodi)",
                "name": "Platform 1",
                "ref": "1",
                "color": "purple"
            },
            "geometry": {
                "type": "Point",
                "coordinates": [
                    77.70422558649,
                    12.99341217175
                ]
            }
        },
        {
            "type": "Feature",
            "properties": {
                "station": "RRRN",
                "ref": "B",
                "railway": "subway_entrance",
                "name": "Sports Authority of India Side"
            },
            "geometry": {
                "type": "Point",
                "coordinates": [
                    77.51953661308,
                    12.93688196194
                ]
            }
        },
        {
            "type": "Feature",
            "properties": {
                "station": "CBPK",
                "ref": "B",
                "name": "Chinnaswamy Stadium",
                "railway": "subway_entrance"
            },
            "geometry": {
                "type": "Point",
                "coordinates": [
                    77.59767606720,
                    12.98056804053
                ]
            }
        },
        {
            "type": "Feature",
            "properties": {
                "highway": "elevator"
            },
            "geometry": {
                "type": "Point",
                "coordinates": [
                    77.47624039516,
                    12.90764385037
                ]
            }
        },
        {
            "type": "Feature",
            "properties": {
                "ref": "C",
                "station": "VDSA",
                "railway": "subway_entrance",
                "name": "GPO Side"
            },
            "geometry": {
                "type": "Point",
                "coordinates": [
                    77.59229153261,
                    12.97902989177
                ]
            }
        },
        {
            "type": "Feature",
            "properties": {
                "station": "KGWA",
                "name": "BMTC Bus Stand",
                "ref": "D",
                "railway": "subway_entrance"
            },
            "geometry": {
                "type": "Point",
                "coordinates": [
                    77.57317006320,
                    12.97614044771
                ]
            }
        },
        {
            "type": "Feature",
            "properties": {
                "station": "KDGD",
                "ref": "B",
                "railway": "subway_entrance",
                "name": "Pattandur Agrahara Side"
            },
            "geometry": {
                "type": "Point",
                "coordinates": [
                    77.74689908936,
                    12.98549835083
                ]
            }
        },
        {
            "type": "Feature",
            "properties": {
                "station": "MIRD",
                "ref": "A",
                "railway": "subway_entrance",
                "name": "Rajajinagar Side"
            },
            "geometry": {
                "type": "Point",
                "coordinates": [
                    77.55584969983,
                    12.97572094476
                ]
            }
        },
        {
            "type": "Feature",
            "properties": {
                "ref": "B",
                "railway": "subway_entrance",
                "station": "SPGD",
                "name": "PNR Nagar Side"
            },
            "geometry": {
                "type": "Point",
                "coordinates": [
                    77.57089286774,
                    12.98980980234
                ]
            }
        },
        {
            "type": "Feature",
            "properties": {
                "station": "BIET",
                "ref": "A",
                "railway": "subway_entrance",
                "name": "BIEC Side"
            },
            "geometry": {
                "type": "Point",
                "coordinates": [
                    77.47281119093,
                    13.05733398434
                ]
            }
        },
        {
            "type": "Feature",
            "properties": {
                "public_transport": "platform",
                "destination": "Madavara",
                "name": "Platform 1",
                "station": "VJRH",
                "color": "green",
                "ref": "1"
            },
            "geometry": {
                "type": "Point",
                "coordinates": [
                    77.54484102166,
                    12.87801404162
                ]
            }
        },
        {
            "type": "Feature",
            "properties": {
                "station": "IDN",
                "ref": "A",
                "railway": "subway_entrance"
            },
            "geometry": {
                "type": "Point",
                "coordinates": [
                    77.63841681115,
                    12.97846337428
                ]
            }
        },
        {
            "type": "Feature",
            "properties": {
                "public_transport": "platform",
                "station": "KDGD",
                "destination": "Whitefield (Kadugodi)",
                "name": "Platform 1",
                "ref": "1",
                "color": "purple"
            },
            "geometry": {
                "type": "Point",
                "coordinates": [
                    77.74741564441,
                    12.98564678779
                ]
            }
        },
        {
            "type": "Feature",
            "properties": {
                "public_transport": "platform",
                "station": "SPRU",
                "name": "Platform 2",
                "destination": "Silk Institute",
                "ref": "2",
                "color": "green"
            },
            "geometry": {
                "type": "Point",
                "coordinates": [
                    77.56377696455,
                    12.99653966022
                ]
            }
        },
        {
            "type": "Feature",
            "properties": {
                "public_transport": "platform",
                "name": "Platform 2",
                "destination": "Silk Institute",
                "station": "KLPK",
                "ref": "2",
                "color": "green"
            },
            "geometry": {
                "type": "Point",
                "coordinates": [
                    77.55233389805,
                    12.88437688995
                ]
            }
        },
        {
            "type": "Feature",
            "properties": {
                "name": "Bangalore University Side",
                "station": "BGUC",
                "ref": "B",
                "railway": "subway_entrance"
            },
            "geometry": {
                "type": "Point",
                "coordinates": [
                    77.51215517253,
                    12.93551738508
                ]
            }
        },
        {
            "type": "Feature",
            "properties": {
                "station": "CKPE",
                "ref": "D",
                "railway": "subway_entrance",
                "name": "Arcot Srinivasachar Side"
            },
            "geometry": {
                "type": "Point",
                "coordinates": [
                    77.57413029402,
                    12.96747321707
                ]
            }
        },
        {
            "type": "Feature",
            "properties": {
                "public_transport": "platform",
                "destination": "Madavara",
                "name": "Platform 1",
                "station": "CKPE",
                "color": "green",
                "ref": "1"
            },
            "geometry": {
                "type": "Point",
                "coordinates": [
                    77.57451652944,
                    12.96740264691
                ]
            }
        },
        {
            "type": "Feature",
            "properties": {
                "name": "APMC Market Side",
                "station": "YPM",
                "ref": "A",
                "railway": "subway_entrance"
            },
            "geometry": {
                "type": "Point",
                "coordinates": [
                    77.55038200736,
                    13.02257137911
                ]
            }
        },
        {
            "type": "Feature",
            "properties": {
                "public_transport": "platform",
                "destination": "Whitefield (Kadugodi)",
                "name": "Platform 1",
                "station": "SVRD",
                "ref": "1",
                "color": "purple"
            },
            "geometry": {
                "type": "Point",
                "coordinates": [
                    77.64502595589,
                    12.98607840720
                ]
            }
        },
        {
            "type": "Feature",
            "properties": {
                "highway": "elevator"
            },
            "geometry": {
                "type": "Point",
                "coordinates": [
                    77.60682373971,
                    12.97569088829
                ]
            }
        },
        {
            "type": "Feature",
            "properties": {
                "station": "JPN",
                "public_transport": "platform",
                "destination": "Madavara",
                "name": "Platform 1",
                "color": "green",
                "ref": "1"
            },
            "geometry": {
                "type": "Point",
                "coordinates": [
                    77.57296680605,
                    12.90795792040
                ]
            }
        },
        {
            "type": "Feature",
            "properties": {
                "highway": "elevator"
            },
            "geometry": {
                "type": "Point",
                "coordinates": [
                    77.54089504413,
                    13.02798395510
                ]
            }
        },
        {
            "type": "Feature",
            "properties": {
                "highway": "elevator"
            },
            "geometry": {
                "type": "Point",
                "coordinates": [
                    77.52553805575,
                    13.03646158467
                ]
            }
        },
        {
            "type": "Feature",
            "properties": {
                "name": "Jaraganahalli Side",
                "ref": "A",
                "railway": "subway_entrance",
                "station": "PUTH"
            },
            "geometry": {
                "type": "Point",
                "coordinates": [
                    77.57082514398,
                    12.89638127084
                ]
            }
        },
        {
            "type": "Feature",
            "properties": {
                "station": "BIET",
                "ref": "B",
                "railway": "subway_entrance",
                "name": "BIEC Side"
            },
            "geometry": {
                "type": "Point",
                "coordinates": [
                    77.47282191977,
                    13.05741759582
                ]
            }
        },
        {
            "type": "Feature",
            "properties": {
                "station": "VJN",
                "ref": "B",
                "railway": "subway_entrance",
                "name": "Hosahalli Side"
            },
            "geometry": {
                "type": "Point",
                "coordinates": [
                    77.53732502192,
                    12.97025690519
                ]
            }
        },
        {
            "type": "Feature",
            "properties": {
                "ref": "A'",
                "station": "KGWA",
                "railway": "subway_entrance"
            },
            "geometry": {
                "type": "Point",
                "coordinates": [
                    77.57152050465,
                    12.97608555968
                ]
            }
        },
        {
            "type": "Feature",
            "properties": {
                "public_transport": "platform",
                "station": "HLRU",
                "destination": "Challaghatta",
                "name": "Platform 2",
                "color": "purple",
                "ref": "2"
            },
            "geometry": {
                "type": "Point",
                "coordinates": [
                    77.62653361474,
                    12.97599958396
                ]
            }
        },
        {
            "type": "Feature",
            "properties": {
                "highway": "elevator"
            },
            "geometry": {
                "type": "Point",
                "coordinates": [
                    77.57394119963,
                    12.95075997735
                ]
            }
        },
        {
            "type": "Feature",
            "properties": {
                "public_transport": "platform",
                "destination": "Challaghatta",
                "name": "Platform 2",
                "station": "WHTM",
                "color": "purple",
                "ref": "2"
            },
            "geometry": {
                "type": "Point",
                "coordinates": [
                    77.75786559880,
                    12.99516033339
                ]
            }
        },
        {
            "type": "Feature",
            "properties": {
                "public_transport": "platform",
                "name": "Platform 2",
                "station": "MNJN",
                "destination": "Silk Institute",
                "ref": "2",
                "color": "green"
            },
            "geometry": {
                "type": "Point",
                "coordinates": [
                    77.49503731191,
                    13.04997476103
                ]
            }
        },
        {
            "type": "Feature",
            "properties": {
                "highway": "elevator"
            },
            "geometry": {
                "type": "Point",
                "coordinates": [
                    77.75384902820,
                    12.98694138982
                ]
            }
        },
        {
            "type": "Feature",
            "properties": {
                "public_transport": "platform",
                "destination": "Challaghatta",
                "name": "Platform 2",
                "station": "BRCS",
                "color": "purple",
                "ref": "2"
            },
            "geometry": {
                "type": "Point",
                "coordinates": [
                    77.56497532473,
                    12.97572196064
                ]
            }
        },
        {
            "type": "Feature",
            "properties": {
                "name": "KIADB Industrial Area Side",
                "ref": "A",
                "railway": "subway_entrance",
                "station": "SSHP"
            },
            "geometry": {
                "type": "Point",
                "coordinates": [
                    77.72741049259,
                    12.98123779353
                ]
            }
        },
        {
            "type": "Feature",
            "properties": {
                "name": "80ft Road Side",
                "ref": "E",
                "station": "SVRD",
                "railway": "subway_entrance"
            },
            "geometry": {
                "type": "Point",
                "coordinates": [
                    77.64426134460,
                    12.98521052546
                ]
            }
        },
        {
            "type": "Feature",
            "properties": {
                "public_transport": "platform",
                "destination": "Madavara",
                "station": "YPM",
                "name": "Platform 1",
                "color": "green",
                "ref": "1"
            },
            "geometry": {
                "type": "Point",
                "coordinates": [
                    77.54940032423,
                    13.02338408593
                ]
            }
        },
        {
            "type": "Feature",
            "properties": {
                "ref": "E",
                "railway": "subway_entrance",
                "name": "Yelachenahalli Side",
                "station": "PUTH"
            },
            "geometry": {
                "type": "Point",
                "coordinates": [
                    77.57007278435,
                    12.89630087338
                ]
            }
        },
        {
            "type": "Feature",
            "properties": {
                "highway": "elevator"
            },
            "geometry": {
                "type": "Point",
                "coordinates": [
                    77.57337257132,
                    12.90792882344
                ]
            }
        },
        {
            "type": "Feature",
            "properties": {
                "public_transport": "platform",
                "destination": "Madavara",
                "name": "Platform 1",
                "station": "JYN",
                "color": "green",
                "ref": "1"
            },
            "geometry": {
                "type": "Point",
                "coordinates": [
                    77.58001571300,
                    12.92998751906
                ]
            }
        },
        {
            "type": "Feature",
            "properties": {
                "public_transport": "platform",
                "destination": "Whitefield (Kadugodi)",
                "name": "Platform 1",
                "station": "UWVL",
                "ref": "1",
                "color": "purple"
            },
            "geometry": {
                "type": "Point",
                "coordinates": [
                    77.75392167951,
                    12.98770156032
                ]
            }
        },
        {
            "type": "Feature",
            "properties": {
                "highway": "elevator"
            },
            "geometry": {
                "type": "Point",
                "coordinates": [
                    77.73819431528,
                    12.98772024188
                ]
            }
        },
        {
            "type": "Feature",
            "properties": {
                "station": "NLC",
                "ref": "A",
                "railway": "subway_entrance"
            },
            "geometry": {
                "type": "Point",
                "coordinates": [
                    77.57389895551,
                    12.95103183065
                ]
            }
        },
        {
            "type": "Feature",
            "properties": {
                "highway": "elevator"
            },
            "geometry": {
                "type": "Point",
                "coordinates": [
                    77.75390535459,
                    12.98760001655
                ]
            }
        },
        {
            "type": "Feature",
            "properties": {
                "highway": "elevator"
            },
            "geometry": {
                "type": "Point",
                "coordinates": [
                    77.56256863341,
                    12.88867672453
                ]
            }
        },
        {
            "type": "Feature",
            "properties": {
                "name": "Pantarapalya Side",
                "station": "NYHM",
                "railway": "subway_entrance",
                "ref": "A"
            },
            "geometry": {
                "type": "Point",
                "coordinates": [
                    77.52536371216,
                    12.94159780294
                ]
            }
        },
        {
            "type": "Feature",
            "properties": {
                "highway": "elevator"
            },
            "geometry": {
                "type": "Point",
                "coordinates": [
                    77.54472657904,
                    12.87715639298
                ]
            }
        },
        {
            "type": "Feature",
            "properties": {
                "station": "JIDL",
                "ref": "A",
                "railway": "subway_entrance",
                "name": "Anchepalya Side"
            },
            "geometry": {
                "type": "Point",
                "coordinates": [
                    77.48833581671,
                    13.05212780775
                ]
            }
        },
        {
            "type": "Feature",
            "properties": {
                "station": "JTPM",
                "ref": "A",
                "railway": "subway_entrance"
            },
            "geometry": {
                "type": "Point",
                "coordinates": [
                    77.66844748378,
                    12.99652921145
                ]
            }
        },
        {
            "type": "Feature",
            "properties": {
                "public_transport": "platform",
                "destination": "Challaghatta",
                "name": "Platform 2",
                "station": "UWVL",
                "color": "purple",
                "ref": "2"
            },
            "geometry": {
                "type": "Point",
                "coordinates": [
                    77.75382733886,
                    12.98684376614
                ]
            }
        },
        {
            "type": "Feature",
            "properties": {
                "station": "KGWA",
                "name": "Railway Station Side",
                "ref": "A",
                "railway": "subway_entrance"
            },
            "geometry": {
                "type": "Point",
                "coordinates": [
                    77.57120399594,
                    12.97569089613
                ]
            }
        },
        {
            "type": "Feature",
            "properties": {
                "name": "Kanakapura Road Side",
                "ref": "C",
                "railway": "subway_entrance",
                "station": "SECE"
            },
            "geometry": {
                "type": "Point",
                "coordinates": [
                    77.57987826996,
                    12.93813608569
                ]
            }
        },
        {
            "type": "Feature",
            "properties": {
                "ref": "D",
                "name": "Banashankari Temple Side",
                "station": "BSNK",
                "railway": "subway_entrance"
            },
            "geometry": {
                "type": "Point",
                "coordinates": [
                    77.57359117236,
                    12.91645564168
                ]
            }
        },
        {
            "type": "Feature",
            "properties": {
                "highway": "elevator"
            },
            "geometry": {
                "type": "Point",
                "coordinates": [
                    77.58020013437,
                    12.94657495744
                ]
            }
        },
        {
            "type": "Feature",
            "properties": {
                "name": "ISKCON Temple Side",
                "ref": "C",
                "railway": "subway_entrance",
                "station": "MHLI"
            },
            "geometry": {
                "type": "Point",
                "coordinates": [
                    77.54894703493,
                    13.00785846931
                ]
            }
        },
        {
            "type": "Feature",
            "properties": {
                "highway": "elevator"
            },
            "geometry": {
                "type": "Point",
                "coordinates": [
                    77.71158680186,
                    12.98908192032
                ]
            }
        },
        {
            "type": "Feature",
            "properties": {
                "highway": "elevator"
            },
            "geometry": {
                "type": "Point",
                "coordinates": [
                    77.55514964327,
                    12.97586469929
                ]
            }
        },
        {
            "type": "Feature",
            "properties": {
                "public_transport": "platform",
                "station": "TGTP",
                "name": "Platform 2",
                "destination": "Silk Institute",
                "ref": "2",
                "color": "green"
            },
            "geometry": {
                "type": "Point",
                "coordinates": [
                    77.53815382451,
                    12.87093451517
                ]
            }
        },
        {
            "type": "Feature",
            "properties": {
                "highway": "elevator"
            },
            "geometry": {
                "type": "Point",
                "coordinates": [
                    77.48813465171,
                    12.91494062670
                ]
            }
        },
        {
            "type": "Feature",
            "properties": {
                "station": "KRAM",
                "ref": "A",
                "railway": "subway_entrance"
            },
            "geometry": {
                "type": "Point",
                "coordinates": [
                    77.67766355395,
                    12.99986401596
                ]
            }
        },
        {
            "type": "Feature",
            "properties": {
                "name": "Kaveri Nagara Side",
                "station": "GDCP",
                "ref": "A",
                "railway": "subway_entrance"
            },
            "geometry": {
                "type": "Point",
                "coordinates": [
                    77.70382583075,
                    12.99360598388
                ]
            }
        },
        {
            "type": "Feature",
            "properties": {
                "public_transport": "platform",
                "destination": "Challaghatta",
                "name": "Platform 2",
                "station": "VDHP",
                "color": "purple",
                "ref": "2"
            },
            "geometry": {
                "type": "Point",
                "coordinates": [
                    77.72441208914,
                    12.97661830350
                ]
            }
        },
        {
            "type": "Feature",
            "properties": {
                "public_transport": "platform",
                "station": "LBGH",
                "destination": "Madavara",
                "name": "Platform 1",
                "color": "green",
                "ref": "1"
            },
            "geometry": {
                "type": "Point",
                "coordinates": [
                    77.57988696429,
                    12.94674136366
                ]
            }
        },
        {
            "type": "Feature",
            "properties": {
                "public_transport": "platform",
                "station": "HSLI",
                "destination": "Whitefield (Kadugodi)",
                "name": "Platform 1",
                "ref": "1",
                "color": "purple"
            },
            "geometry": {
                "type": "Point",
                "coordinates": [
                    77.54637478709,
                    12.97444937606
                ]
            }
        },
        {
            "type": "Feature",
            "properties": {
                "name": "South End Circle Side",
                "ref": "B",
                "railway": "subway_entrance",
                "station": "SECE"
            },
            "geometry": {
                "type": "Point",
                "coordinates": [
                    77.58033089273,
                    12.93807007930
                ]
            }
        },
        {
            "type": "Feature",
            "properties": {
                "public_transport": "platform",
                "destination": "Madavara",
                "station": "SPRU",
                "name": "Platform 1",
                "color": "green",
                "ref": "1"
            },
            "geometry": {
                "type": "Point",
                "coordinates": [
                    77.56282209814,
                    12.99649261721
                ]
            }
        },
        {
            "type": "Feature",
            "properties": {
                "name": "Bangalore University Side",
                "station": "VSWA",
                "ref": "A",
                "railway": "subway_entrance"
            },
            "geometry": {
                "type": "Point",
                "coordinates": [
                    77.58451848149,
                    12.97485842494
                ]
            }
        },
        {
            "type": "Feature",
            "properties": {
                "ref": "A",
                "railway": "subway_entrance",
                "station": "VDHP"
            },
            "geometry": {
                "type": "Point",
                "coordinates": [
                    77.72488116682,
                    12.97665012426
                ]
            }
        },
        {
            "type": "Feature",
            "properties": {
                "name": "Prakash Nagar",
                "ref": "B",
                "railway": "subway_entrance",
                "station": "KVPR"
            },
            "geometry": {
                "type": "Point",
                "coordinates": [
                    77.55724847183,
                    12.99827893486
                ]
            }
        },
        {
            "type": "Feature",
            "properties": {
                "ref": "A",
                "name": "Jyothy Kendriya Vidyalaya Side",
                "railway": "subway_entrance",
                "station": "PUTH"
            },
            "geometry": {
                "type": "Point",
                "coordinates": [
                    77.57068633966,
                    12.89613288837
                ]
            }
        },
        {
            "type": "Feature",
            "properties": {
                "public_transport": "platform",
                "station": "KGWA",
                "destination": "Whitefield (Kadugodi)",
                "name": "Platform 1",
                "ref": "1",
                "color": "purple"
            },
            "geometry": {
                "type": "Point",
                "coordinates": [
                    77.57325589120,
                    12.97581373571
                ]
            }
        },
        {
            "type": "Feature",
            "properties": {
                "station": "MYRD",
                "ref": "C",
                "name": "Outer Ring Road Side",
                "railway": "subway_entrance"
            },
            "geometry": {
                "type": "Point",
                "coordinates": [
                    77.53066777110,
                    12.94623122198
                ]
            }
        },
        {
            "type": "Feature",
            "properties": {
                "highway": "elevator"
            },
            "geometry": {
                "type": "Point",
                "coordinates": [
                    77.56536617741,
                    12.97562293025
                ]
            }
        },
        {
            "type": "Feature",
            "properties": {
                "highway": "elevator"
            },
            "geometry": {
                "type": "Point",
                "coordinates": [
                    77.72764786944,
                    12.98086861224
                ]
            }
        },
        {
            "type": "Feature",
            "properties": {
                "highway": "elevator"
            },
            "geometry": {
                "type": "Point",
                "coordinates": [
                    77.56289452180,
                    12.88924017700
                ]
            }
        },
        {
            "type": "Feature",
            "properties": {
                "ref": "C",
                "station": "KGWA",
                "railway": "subway_entrance",
                "name": "Tank Bund Road"
            },
            "geometry": {
                "type": "Point",
                "coordinates": [
                    77.57291525334,
                    12.97462971573
                ]
            }
        },
        {
            "type": "Feature",
            "properties": {
                "public_transport": "platform",
                "destination": "Madavara",
                "name": "Platform 1",
                "station": "SECE",
                "color": "green",
                "ref": "1"
            },
            "geometry": {
                "type": "Point",
                "coordinates": [
                    77.57994329336,
                    12.93874754781
                ]
            }
        },
        {
            "type": "Feature",
            "properties": {
                "public_transport": "platform",
                "station": "TGTP",
                "name": "Platform 2",
                "destination": "Silk Institute",
                "ref": "2",
                "color": "green"
            },
            "geometry": {
                "type": "Point",
                "coordinates": [
                    77.51295446813,
                    13.04320716182
                ]
            }
        },
        {
            "type": "Feature",
            "properties": {
                "highway": "elevator"
            },
            "geometry": {
                "type": "Point",
                "coordinates": [
                    77.61709995501,
                    12.97264327021
                ]
            }
        },
        {
            "type": "Feature",
            "properties": {
                "public_transport": "platform",
                "destination": "Madavara",
                "name": "Platform 1",
                "station": "NGSA",
                "color": "green",
                "ref": "1"
            },
            "geometry": {
                "type": "Point",
                "coordinates": [
                    77.49954341769,
                    13.04804118539
                ]
            }
        },
        {
            "type": "Feature",
            "properties": {
                "public_transport": "platform",
                "station": "IDN",
                "destination": "Challaghatta",
                "name": "Platform 2",
                "color": "purple",
                "ref": "2"
            },
            "geometry": {
                "type": "Point",
                "coordinates": [
                    77.63832054623,
                    12.97820071864
                ]
            }
        },
        {
            "type": "Feature",
            "properties": {
                "name": "Whitefield Traffic Police Station Side",
                "ref": "A",
                "railway": "subway_entrance",
                "station": "WHTM"
            },
            "geometry": {
                "type": "Point",
                "coordinates": [
                    77.75789379537,
                    12.99497416842
                ]
            }
        },
        {
            "type": "Feature",
            "properties": {
                "public_transport": "platform",
                "station": "BGUC",
                "destination": "Whitefield (Kadugodi)",
                "name": "Platform 1",
                "ref": "1",
                "color": "purple"
            },
            "geometry": {
                "type": "Point",
                "coordinates": [
                    77.51273988605,
                    12.93568992621
                ]
            }
        },
        {
            "type": "Feature",
            "properties": {
                "ref": "E",
                "railway": "subway_entrance",
                "name": "Minerva Mill Road Side",
                "station": "BRCS"
            },
            "geometry": {
                "type": "Point",
                "coordinates": [
                    77.56472378835,
                    12.97602674976
                ]
            }
        },
        {
            "type": "Feature",
            "properties": {
                "public_transport": "platform",
                "station": "MYRD",
                "destination": "Whitefield (Kadugodi)",
                "name": "Platform 1",
                "ref": "1",
                "color": "purple"
            },
            "geometry": {
                "type": "Point",
                "coordinates": [
                    77.53037809253,
                    12.94686773729
                ]
            }
        },
        {
            "type": "Feature",
            "properties": {
                "highway": "elevator"
            },
            "geometry": {
                "type": "Point",
                "coordinates": [
                    77.52963177793,
                    12.86134579712
                ]
            }
        },
        {
            "type": "Feature",
            "properties": {
                "public_transport": "platform",
                "station": "JIDL",
                "destination": "Madavara",
                "name": "Platform 1",
                "color": "green",
                "ref": "1"
            },
            "geometry": {
                "type": "Point",
                "coordinates": [
                    77.48729108691,
                    13.05246226968
                ]
            }
        },
        {
            "type": "Feature",
            "properties": {
                "public_transport": "platform",
                "station": "JTPM",
                "destination": "Whitefield (Kadugodi)",
                "name": "Platform 1",
                "ref": "1",
                "color": "purple"
            },
            "geometry": {
                "type": "Point",
                "coordinates": [
                    77.66885307542,
                    12.99676140963
                ]
            }
        },
        {
            "type": "Feature",
            "properties": {
                "name": "APMC Market Side",
                "ref": "C",
                "station": "YPM",
                "railway": "subway_entrance"
            },
            "geometry": {
                "type": "Point",
                "coordinates": [
                    77.54895910352,
                    13.02336840401
                ]
            }
        },
        {
            "type": "Feature",
            "properties": {
                "public_transport": "platform",
                "destination": "Whitefield (Kadugodi)",
                "station": "NYHM",
                "name": "Platform 1",
                "ref": "1",
                "color": "purple"
            },
            "geometry": {
                "type": "Point",
                "coordinates": [
                    77.52526043773,
                    12.94232975280
                ]
            }
        },
        {
            "type": "Feature",
            "properties": {
                "highway": "elevator"
            },
            "geometry": {
                "type": "Point",
                "coordinates": [
                    77.51241937146,
                    13.04366835346
                ]
            }
        },
        {
            "type": "Feature",
            "properties": {
                "name": "RV College of Engineering Side",
                "station": "PATG",
                "railway": "subway_entrance",
                "ref": "A"
            },
            "geometry": {
                "type": "Point",
                "coordinates": [
                    77.49836861953,
                    12.92402273857
                ]
            }
        },
        {
            "type": "Feature",
            "properties": {
                "station": "MLSD",
                "ref": "B",
                "name": "Mysore Road Side",
                "railway": "subway_entrance"
            },
            "geometry": {
                "type": "Point",
                "coordinates": [
                    77.48806223139,
                    12.91510010308
                ]
            }
        },
        {
            "type": "Feature",
            "properties": {
                "highway": "elevator"
            },
            "geometry": {
                "type": "Point",
                "coordinates": [
                    77.54518657856,
                    12.97403639611
                ]
            }
        },
        {
            "type": "Feature",
            "properties": {
                "highway": "elevator"
            },
            "geometry": {
                "type": "Point",
                "coordinates": [
                    77.64456510410,
                    12.98528305405
                ]
            }
        },
        {
            "type": "Feature",
            "properties": {
                "ref": "B",
                "station": "VDSA",
                "railway": "subway_entrance",
                "name": "GPO Side"
            },
            "geometry": {
                "type": "Point",
                "coordinates": [
                    77.59268179402,
                    12.97947944515
                ]
            }
        },
        {
            "type": "Feature",
            "properties": {
                "name": "Government Arts and Science College Side",
                "ref": "B",
                "station": "VSWA",
                "railway": "subway_entrance"
            },
            "geometry": {
                "type": "Point",
                "coordinates": [
                    77.58472904429,
                    12.97451209650
                ]
            }
        },
        {
            "type": "Feature",
            "properties": {
                "station": "HSLI",
                "ref": "A",
                "railway": "subway_entrance",
                "name": "Telephone Exchange Side"
            },
            "geometry": {
                "type": "Point",
                "coordinates": [
                    77.54603414655,
                    12.97435789540
                ]
            }
        },
        {
            "type": "Feature",
            "properties": {
                "public_transport": "platform",
                "destination": "Madavara",
                "name": "Platform 1",
                "station": "APRC",
                "color": "green",
                "ref": "1"
            },
            "geometry": {
                "type": "Point",
                "coordinates": [
                    77.56302181158,
                    12.88939790174
                ]
            }
        },
        {
            "type": "Feature",
            "properties": {
                "highway": "elevator"
            },
            "geometry": {
                "type": "Point",
                "coordinates": [
                    77.67839983039,
                    13.00003126790
                ]
            }
        },
        {
            "type": "Feature",
            "properties": {
                "public_transport": "platform",
                "station": "RRRN",
                "destination": "Whitefield (Kadugodi)",
                "name": "Platform 1",
                "ref": "1",
                "color": "purple"
            },
            "geometry": {
                "type": "Point",
                "coordinates": [
                    77.52003549457,
                    12.93695516664
                ]
            }
        },
        {
            "type": "Feature",
            "properties": {
                "public_transport": "platform",
                "station": "MAGR",
                "destination": "Whitefield (Kadugodi)",
                "name": "Platform 1",
                "ref": "1",
                "color": "purple"
            },
            "geometry": {
                "type": "Point",
                "coordinates": [
                    77.60723522025,
                    12.97550775000
                ]
            }
        },
        {
            "type": "Feature",
            "properties": {
                "public_transport": "platform",
                "station": "TTY",
                "destination": "Whitefield (Kadugodi)",
                "name": "Platform 1",
                "ref": "1",
                "color": "purple"
            },
            "geometry": {
                "type": "Point",
                "coordinates": [
                    77.61762427477,
                    12.97294877069
                ]
            }
        },
        {
            "type": "Feature",
            "properties": {
                "highway": "elevator"
            },
            "geometry": {
                "type": "Point",
                "coordinates": [
                    77.60661452740,
                    12.97519166728
                ]
            }
        },
        {
            "type": "Feature",
            "properties": {
                "ref": "C",
                "name": "GG Palya Side",
                "railway": "subway_entrance",
                "station": "YPI"
            },
            "geometry": {
                "type": "Point",
                "coordinates": [
                    77.54148244590,
                    13.02833346819
                ]
            }
        },
        {
            "type": "Feature",
            "properties": {
                "public_transport": "platform",
                "destination": "Whitefield (Kadugodi)",
                "name": "Platform 1",
                "station": "BRCS",
                "ref": "1",
                "color": "purple"
            },
            "geometry": {
                "type": "Point",
                "coordinates": [
                    77.56582140310,
                    12.97597607326
                ]
            }
        },
        {
            "type": "Feature",
            "properties": {
                "public_transport": "platform",
                "destination": "Challaghatta",
                "station": "VSWA",
                "name": "Platform 2",
                "color": "purple",
                "ref": "2"
            },
            "geometry": {
                "type": "Point",
                "coordinates": [
                    77.58382580802,
                    12.97414745999
                ]
            }
        },
        {
            "type": "Feature",
            "properties": {
                "ref": "A",
                "railway": "subway_entrance",
                "station": "SPGD",
                "name": "PNR Nagar Side"
            },
            "geometry": {
                "type": "Point",
                "coordinates": [
                    77.57133810639,
                    12.99011298428
                ]
            }
        },
        {
            "type": "Feature",
            "properties": {
                "station": "JPN",
                "ref": "A",
                "railway": "subway_entrance",
                "name": "JP Nagar 6th Phase Side"
            },
            "geometry": {
                "type": "Point",
                "coordinates": [
                    77.57329747014,
                    12.90823078931
                ]
            }
        },
        {
            "type": "Feature",
            "properties": {
                "station": "MLSD",
                "name": "Kengeri Bus Terminal Side",
                "railway": "subway_entrance",
                "ref": "A"
            },
            "geometry": {
                "type": "Point",
                "coordinates": [
                    77.48725890979,
                    12.91448703600
                ]
            }
        },
        {
            "type": "Feature",
            "properties": {
                "highway": "elevator"
            },
            "geometry": {
                "type": "Point",
                "coordinates": [
                    77.53846496210,
                    12.87167319849
                ]
            }
        },
        {
            "type": "Feature",
            "properties": {
                "public_transport": "platform",
                "destination": "Whitefield (Kadugodi)",
                "name": "Platform 1",
                "station": "SSHP",
                "ref": "1",
                "color": "purple"
            },
            "geometry": {
                "type": "Point",
                "coordinates": [
                    77.72757308460,
                    12.98163331009
                ]
            }
        },
        {
            "type": "Feature",
            "properties": {
                "public_transport": "platform",
                "destination": "Madavara",
                "station": "NLC",
                "name": "Platform 1",
                "color": "green",
                "ref": "1"
            },
            "geometry": {
                "type": "Point",
                "coordinates": [
                    77.57358914020,
                    12.95101002551
                ]
            }
        },
        {
            "type": "Feature",
            "properties": {
                "public_transport": "platform",
                "station": "VDSA",
                "destination": "Challaghatta",
                "name": "Platform 2",
                "color": "purple",
                "ref": "2"
            },
            "geometry": {
                "type": "Point",
                "coordinates": [
                    77.59134301761,
                    12.97825368867
                ]
            }
        },
        {
            "type": "Feature",
            "properties": {
                "name": "Kamaraj Road Side",
                "station": "MAGR",
                "ref": "A",
                "railway": "subway_entrance"
            },
            "geometry": {
                "type": "Point",
                "coordinates": [
                    77.60622157574,
                    12.97558896103
                ]
            }
        },
        {
            "type": "Feature",
            "properties": {
                "public_transport": "platform",
                "station": "ITPL",
                "destination": "Challaghatta",
                "name": "Platform 2",
                "color": "purple",
                "ref": "2"
            },
            "geometry": {
                "type": "Point",
                "coordinates": [
                    77.73744969840,
                    12.98748287151
                ]
            }
        },
        {
            "type": "Feature",
            "properties": {
                "highway": "elevator"
            },
            "geometry": {
                "type": "Point",
                "coordinates": [
                    77.53022253379,
                    12.86190146694
                ]
            }
        },
        {
            "type": "Feature",
            "properties": {
                "public_transport": "platform",
                "station": "NLC",
                "name": "Platform 2",
                "destination": "Silk Institute",
                "ref": "2",
                "color": "green"
            },
            "geometry": {
                "type": "Point",
                "coordinates": [
                    77.57387751398,
                    12.95003941393
                ]
            }
        },
        {
            "type": "Feature",
            "properties": {
                "station": "SVRD",
                "ref": "A",
                "railway": "subway_entrance",
                "name": "Isolation Hospital Side"
            },
            "geometry": {
                "type": "Point",
                "coordinates": [
                    77.64444239371,
                    12.98586131595
                ]
            }
        },
        {
            "type": "Feature",
            "properties": {
                "station": "JPN",
                "ref": "B",
                "railway": "subway_entrance",
                "name": "JP Nagar 6th Phase Side"
            },
            "geometry": {
                "type": "Point",
                "coordinates": [
                    77.57339939408,
                    12.90793470526
                ]
            }
        },
        {
            "type": "Feature",
            "properties": {
                "name": "City Civil Court Side",
                "ref": "C",
                "station": "VSWA",
                "railway": "subway_entrance"
            },
            "geometry": {
                "type": "Point",
                "coordinates": [
                    77.58299633726,
                    12.97349796629
                ]
            }
        },
        {
            "type": "Feature",
            "properties": {
                "public_transport": "platform",
                "destination": "Whitefield (Kadugodi)",
                "name": "Platform 1",
                "station": "PATG",
                "ref": "1",
                "color": "purple"
            },
            "geometry": {
                "type": "Point",
                "coordinates": [
                    77.49857782245,
                    12.92483578187
                ]
            }
        },
        {
            "type": "Feature",
            "properties": {
                "public_transport": "platform",
                "station": "TTY",
                "destination": "Challaghatta",
                "name": "Platform 2",
                "color": "purple",
                "ref": "2"
            },
            "geometry": {
                "type": "Point",
                "coordinates": [
                    77.61674058707,
                    12.97300166621
                ]
            }
        },
        {
            "type": "Feature",
            "properties": {
                "station": "GDCP",
                "ref": "B",
                "name": "Garudacharpalya Side",
                "railway": "subway_entrance"
            },
            "geometry": {
                "type": "Point",
                "coordinates": [
                    77.70372055403,
                    12.99323094184
                ]
            }
        },
        {
            "type": "Feature",
            "properties": {
                "highway": "elevator"
            },
            "geometry": {
                "type": "Point",
                "coordinates": [
                    77.70343959197,
                    12.99339951547
                ]
            }
        },
        {
            "type": "Feature",
            "properties": {
                "highway": "elevator"
            },
            "geometry": {
                "type": "Point",
                "coordinates": [
                    77.74731114373,
                    12.98566202853
                ]
            }
        },
        {
            "type": "Feature",
            "properties": {
                "public_transport": "platform",
                "station": "KGIT",
                "destination": "Whitefield (Kadugodi)",
                "name": "Platform 1",
                "ref": "1",
                "color": "purple"
            },
            "geometry": {
                "type": "Point",
                "coordinates": [
                    77.47675053996,
                    12.90825771874
                ]
            }
        },
        {
            "type": "Feature",
            "properties": {
                "station": "MIRD",
                "ref": "B",
                "railway": "subway_entrance",
                "name": "Sheshadripuram College Side"
            },
            "geometry": {
                "type": "Point",
                "coordinates": [
                    77.55593015671,
                    12.97545696808
                ]
            }
        },
        {
            "type": "Feature",
            "properties": {
                "highway": "elevator"
            },
            "geometry": {
                "type": "Point",
                "coordinates": [
                    77.70862027869,
                    12.98114174014
                ]
            }
        },
        {
            "type": "Feature",
            "properties": {
                "public_transport": "platform",
                "station": "RJNR",
                "name": "Platform 2",
                "destination": "Silk Institute",
                "ref": "2",
                "color": "green"
            },
            "geometry": {
                "type": "Point",
                "coordinates": [
                    77.54986702859,
                    12.99999991091
                ]
            }
        },
        {
            "type": "Feature",
            "properties": {
                "station": "MAGR",
                "ref": "D",
                "railway": "subway_entrance",
                "name": "Church Street Side"
            },
            "geometry": {
                "type": "Point",
                "coordinates": [
                    77.60659575328,
                    12.97481659613
                ]
            }
        },
        {
            "type": "Feature",
            "properties": {
                "highway": "elevator"
            },
            "geometry": {
                "type": "Point",
                "coordinates": [
                    77.53727406129,
                    12.97105933214
                ]
            }
        },
        {
            "type": "Feature",
            "properties": {
                "public_transport": "platform",
                "destination": "Madavara",
                "name": "Platform 1",
                "station": "YPI",
                "color": "green",
                "ref": "1"
            },
            "geometry": {
                "type": "Point",
                "coordinates": [
                    77.54050075471,
                    13.02850593966
                ]
            }
        },
        {
            "type": "Feature",
            "properties": {
                "ref": "D",
                "station": "VSWA",
                "railway": "subway_entrance",
                "name": "Central College Side"
            },
            "geometry": {
                "type": "Point",
                "coordinates": [
                    77.58278846607,
                    12.97385212821
                ]
            }
        },
        {
            "type": "Feature",
            "properties": {
                "station": "LBGH",
                "ref": "C",
                "railway": "subway_entrance"
            },
            "geometry": {
                "type": "Point",
                "coordinates": [
                    77.57982998952,
                    12.94605868684
                ]
            }
        },
        {
            "type": "Feature",
            "properties": {
                "station": "DJNR",
                "ref": "A",
                "railway": "subway_entrance",
                "name": "Bapuji Nagar Side"
            },
            "geometry": {
                "type": "Point",
                "coordinates": [
                    77.53707288623,
                    12.95254794359
                ]
            }
        },
        {
            "type": "Feature",
            "properties": {
                "public_transport": "platform",
                "station": "MDVP",
                "destination": "Challaghatta",
                "name": "Platform 2",
                "color": "purple",
                "ref": "2"
            },
            "geometry": {
                "type": "Point",
                "coordinates": [
                    77.69234665412,
                    12.99657998266
                ]
            }
        },
        {
            "type": "Feature",
            "properties": {
                "station": "AGPP",
                "ref": "A",
                "railway": "subway_entrance",
                "name": "Hampi Nagar Side"
            },
            "geometry": {
                "type": "Point",
                "coordinates": [
                    77.53398029924,
                    12.96240761678
                ]
            }
        },
        {
            "type": "Feature",
            "properties": {
                "name": "Doddakallasandra Side",
                "ref": "A",
                "railway": "subway_entrance",
                "station": "KLPK"
            },
            "geometry": {
                "type": "Point",
                "coordinates": [
                    77.55281612143,
                    12.88447366904
                ]
            }
        },
        {
            "type": "Feature",
            "properties": {
                "station": "JLHL",
                "ref": "A",
                "railway": "subway_entrance",
                "name": "Jalahalli Cross Side"
            },
            "geometry": {
                "type": "Point",
                "coordinates": [
                    77.51933812961,
                    13.03965605396
                ]
            }
        },
        {
            "type": "Feature",
            "properties": {
                "public_transport": "platform",
                "destination": "Whitefield (Kadugodi)",
                "station": "KRAM",
                "name": "Platform 1",
                "ref": "1",
                "color": "purple"
            },
            "geometry": {
                "type": "Point",
                "coordinates": [
                    77.67808454610,
                    13.00001471080
                ]
            }
        },
        {
            "type": "Feature",
            "properties": {
                "public_transport": "platform",
                "name": "Platform 2",
                "station": "MHLI",
                "destination": "Silk Institute",
                "ref": "2",
                "color": "green"
            },
            "geometry": {
                "type": "Point",
                "coordinates": [
                    77.54881560266,
                    13.00761542864
                ]
            }
        },
        {
            "type": "Feature",
            "properties": {
                "station": "NYHM",
                "ref": "B",
                "railway": "subway_entrance",
                "name": "Nayandahalli Railway Station Side"
            },
            "geometry": {
                "type": "Point",
                "coordinates": [
                    77.52491444215,
                    12.94180954315
                ]
            }
        },
        {
            "type": "Feature",
            "properties": {
                "public_transport": "platform",
                "destination": "Madavara",
                "station": "JLHL",
                "name": "Platform 1",
                "color": "green",
                "ref": "1"
            },
            "geometry": {
                "type": "Point",
                "coordinates": [
                    77.51924156606,
                    13.03961163609
                ]
            }
        },
        {
            "type": "Feature",
            "properties": {
                "name": "Cubbon Park/BSNL Office",
                "ref": "C",
                "station": "CBPK",
                "railway": "subway_entrance"
            },
            "geometry": {
                "type": "Point",
                "coordinates": [
                    77.59695723519,
                    12.98105679609
                ]
            }
        },
        {
            "type": "Feature",
            "properties": {
                "ref": "B",
                "station": "SVRD",
                "railway": "subway_entrance",
                "name": "Isolation Hospital Side"
            },
            "geometry": {
                "type": "Point",
                "coordinates": [
                    77.64475755326,
                    12.98603773476
                ]
            }
        },
        {
            "type": "Feature",
            "properties": {
                "public_transport": "platform",
                "destination": "Madavara",
                "name": "Platform 1",
                "station": "MHLI",
                "color": "green",
                "ref": "1"
            },
            "geometry": {
                "type": "Point",
                "coordinates": [
                    77.54883706033,
                    13.00881235560
                ]
            }
        },
        {
            "type": "Feature",
            "properties": {
                "station": "TTY",
                "ref": "B",
                "railway": "subway_entrance",
                "name": "North Side"
            },
            "geometry": {
                "type": "Point",
                "coordinates": [
                    77.61750027470,
                    12.97301180897
                ]
            }
        },
        {
            "type": "Feature",
            "properties": {
                "public_transport": "platform",
                "destination": "Challaghatta",
                "name": "Platform 2",
                "station": "SVRD",
                "color": "purple",
                "ref": "2"
            },
            "geometry": {
                "type": "Point",
                "coordinates": [
                    77.64431882634,
                    12.98555928592
                ]
            }
        },
        {
            "type": "Feature",
            "properties": {
                "name": "Railway Station Side",
                "ref": "A",
                "railway": "subway_entrance",
                "station": "BRCS"
            },
            "geometry": {
                "type": "Point",
                "coordinates": [
                    77.56681858420,
                    12.97607903323
                ]
            }
        },
        {
            "type": "Feature",
            "properties": {
                "name": "Shakambari Side",
                "station": "BSNK",
                "ref": "A",
                "railway": "subway_entrance"
            },
            "geometry": {
                "type": "Point",
                "coordinates": [
                    77.57400255617,
                    12.91622198483
                ]
            }
        },
        {
            "type": "Feature",
            "properties": {
                "name": "Magadi Road/Leprosy Hospital",
                "ref": "D",
                "railway": "subway_entrance",
                "station": "BRCS"
            },
            "geometry": {
                "type": "Point",
                "coordinates": [
                    77.56519317493,
                    12.97538900214
                ]
            }
        },
        {
            "type": "Feature",
            "properties": {
                "highway": "elevator"
            },
            "geometry": {
                "type": "Point",
                "coordinates": [
                    77.59664609894,
                    12.98114696746
                ]
            }
        },
        {
            "type": "Feature",
            "properties": {
                "public_transport": "platform",
                "destination": "Madavara",
                "name": "Platform 1",
                "station": "PYID",
                "color": "green",
                "ref": "1"
            },
            "geometry": {
                "type": "Point",
                "coordinates": [
                    77.52498685777,
                    13.03651776980
                ]
            }
        },
        {
            "type": "Feature",
            "properties": {
                "ref": "E",
                "station": "YPM",
                "name": "Railway Station Side",
                "railway": "subway_entrance"
            },
            "geometry": {
                "type": "Point",
                "coordinates": [
                    77.55031764239,
                    13.02360359350
                ]
            }
        },
        {
            "type": "Feature",
            "properties": {
                "highway": "elevator"
            },
            "geometry": {
                "type": "Point",
                "coordinates": [
                    77.54934534363,
                    13.02311557309
                ]
            }
        },
        {
            "type": "Feature",
            "properties": {
                "ref": "B",
                "station": "KDNH",
                "railway": "subway_entrance",
                "name": "Kundalahalli Side"
            },
            "geometry": {
                "type": "Point",
                "coordinates": [
                    77.71563023195,
                    12.97738065117
                ]
            }
        },
        {
            "type": "Feature",
            "properties": {
                "name": "Jayanagar 4th Block Side",
                "ref": "B",
                "station": "JYN",
                "railway": "subway_entrance"
            },
            "geometry": {
                "type": "Point",
                "coordinates": [
                    77.58032083444,
                    12.92895841572
                ]
            }
        },
        {
            "type": "Feature",
            "properties": {
                "name": "APMC Market Side",
                "ref": "B",
                "station": "YPM",
                "railway": "subway_entrance"
            },
            "geometry": {
                "type": "Point",
                "coordinates": [
                    77.54967927665,
                    13.02296074168
                ]
            }
        },
        {
            "type": "Feature",
            "properties": {
                "public_transport": "platform",
                "station": "BSNK",
                "name": "Platform 2",
                "destination": "Silk Institute",
                "ref": "2",
                "color": "green"
            },
            "geometry": {
                "type": "Point",
                "coordinates": [
                    77.57374952998,
                    12.91507259821
                ]
            }
        },
        {
            "type": "Feature",
            "properties": {
                "station": "MDVP",
                "ref": "A",
                "railway": "subway_entrance",
                "name": "Mahadevapura Police Station Side"
            },
            "geometry": {
                "type": "Point",
                "coordinates": [
                    77.69255786061,
                    12.99675397241
                ]
            }
        },
        {
            "type": "Feature",
            "properties": {
                "highway": "elevator"
            },
            "geometry": {
                "type": "Point",
                "coordinates": [
                    77.48743861847,
                    12.91441514039
                ]
            }
        },
        {
            "type": "Feature",
            "properties": {
                "highway": "elevator"
            },
            "geometry": {
                "type": "Point",
                "coordinates": [
                    77.71599501237,
                    12.97763156645
                ]
            }
        },
        {
            "type": "Feature",
            "properties": {
                "station": "MIRD",
                "ref": "C",
                "railway": "subway_entrance",
                "name": "Karumaramma Temple Side"
            },
            "geometry": {
                "type": "Point",
                "coordinates": [
                    77.55479961500,
                    12.97580850435
                ]
            }
        },
        {
            "type": "Feature",
            "properties": {
                "name": "PF Office Side",
                "ref": "B",
                "station": "PYID",
                "railway": "subway_entrance"
            },
            "geometry": {
                "type": "Point",
                "coordinates": [
                    77.52600877404,
                    13.03614671752
                ]
            }
        },
        {
            "type": "Feature",
            "properties": {
                "public_transport": "platform",
                "destination": "Madavara",
                "name": "Platform 1",
                "station": "MNJN",
                "color": "green",
                "ref": "1"
            },
            "geometry": {
                "type": "Point",
                "coordinates": [
                    77.49381421924,
                    13.05014199416
                ]
            }
        },
        {
            "type": "Feature",
            "properties": {
                "name": "Kalasipalya (Victoria Hospital) Side",
                "station": "KRAM",
                "ref": "A",
                "railway": "subway_entrance"
            },
            "geometry": {
                "type": "Point",
                "coordinates": [
                    77.57570609316,
                    12.96185869654
                ]
            }
        },
        {
            "type": "Feature",
            "properties": {
                "public_transport": "platform",
                "station": "KGWA",
                "destination": "Silk Institute",
                "name": "Platform 4",
                "ref": "4",
                "color": "green"
            },
            "geometry": {
                "type": "Point",
                "coordinates": [
                    77.57307886541,
                    12.97477347352
                ]
            }
        },
        {
            "type": "Feature",
            "properties": {
                "name": "KR Market Side",
                "ref": "B",
                "station": "KRAM",
                "railway": "subway_entrance"
            },
            "geometry": {
                "type": "Point",
                "coordinates": [
                    77.57498726115,
                    12.96049294820
                ]
            }
        },
        {
            "type": "Feature",
            "properties": {
                "highway": "elevator"
            },
            "geometry": {
                "type": "Point",
                "coordinates": [
                    77.58035167985,
                    12.92921068689
                ]
            }
        },
        {
            "type": "Feature",
            "properties": {
                "public_transport": "platform",
                "name": "Platform 2",
                "station": "SPGD",
                "destination": "Silk Institute",
                "ref": "2",
                "color": "green"
            },
            "geometry": {
                "type": "Point",
                "coordinates": [
                    77.57123350561,
                    12.98997968704
                ]
            }
        },
        {
            "type": "Feature",
            "properties": {
                "public_transport": "platform",
                "name": "Platform 2",
                "station": "SSFY",
                "destination": "Silk Institute",
                "ref": "2",
                "color": "green"
            },
            "geometry": {
                "type": "Point",
                "coordinates": [
                    77.55413174093,
                    13.01405472309
                ]
            }
        },
        {
            "type": "Feature",
            "properties": {
                "ref": "B",
                "station": "MDVP",
                "name": "Maheswari Nagar Side",
                "railway": "subway_entrance"
            },
            "geometry": {
                "type": "Point",
                "coordinates": [
                    77.69262894854,
                    12.99636585845
                ]
            }
        },
        {
            "type": "Feature",
            "properties": {
                "public_transport": "platform",
                "station": "RJNR",
                "destination": "Madavara",
                "name": "Platform 1",
                "color": "green",
                "ref": "1"
            },
            "geometry": {
                "type": "Point",
                "coordinates": [
                    77.54953979909,
                    13.00079962966
                ]
            }
        },
        {
            "type": "Feature",
            "properties": {
                "public_transport": "platform",
                "destination": "Challaghatta",
                "name": "Platform 2",
                "station": "BYPH",
                "color": "purple",
                "ref": "2"
            },
            "geometry": {
                "type": "Point",
                "coordinates": [
                    77.65203159163,
                    12.99050162213
                ]
            }
        },
        {
            "type": "Feature",
            "properties": {
                "highway": "elevator"
            },
            "geometry": {
                "type": "Point",
                "coordinates": [
                    77.58037581906,
                    12.93759692472
                ]
            }
        },
        {
            "type": "Feature",
            "properties": {
                "name": "Jayanagar 7th Block Side",
                "ref": "C",
                "station": "JYN",
                "railway": "subway_entrance"
            },
            "geometry": {
                "type": "Point",
                "coordinates": [
                    77.58001707427,
                    12.92998383760
                ]
            }
        },
        {
            "type": "Feature",
            "properties": {
                "public_transport": "platform",
                "station": "YPM",
                "name": "Platform 2",
                "destination": "Silk Institute",
                "ref": "2",
                "color": "green"
            },
            "geometry": {
                "type": "Point",
                "coordinates": [
                    77.55031763971,
                    13.02305482028
                ]
            }
        },
        {
            "type": "Feature",
            "properties": {
                "name": "Vidhana Soudha Side",
                "station": "VDSA",
                "ref": "A",
                "railway": "subway_entrance"
            },
            "geometry": {
                "type": "Point",
                "coordinates": [
                    77.59274348482,
                    12.98013939850
                ]
            }
        },
        {
            "type": "Feature",
            "properties": {
                "public_transport": "platform",
                "destination": "Whitefield (Kadugodi)",
                "station": "MLSD",
                "name": "Platform 1",
                "ref": "1",
                "color": "purple"
            },
            "geometry": {
                "type": "Point",
                "coordinates": [
                    77.48813866496,
                    12.91514194191
                ]
            }
        },
        {
            "type": "Feature",
            "properties": {
                "ref": "A",
                "railway": "subway_entrance",
                "station": "NGSA",
                "name": "Manjunath Nagar Side"
            },
            "geometry": {
                "type": "Point",
                "coordinates": [
                    77.49964803323,
                    13.04819926011
                ]
            }
        },
        {
            "type": "Feature",
            "properties": {
                "public_transport": "platform",
                "destination": "Whitefield (Kadugodi)",
                "name": "Platform 1",
                "station": "VWIA",
                "ref": "1",
                "color": "purple"
            },
            "geometry": {
                "type": "Point",
                "coordinates": [
                    77.70904543168,
                    12.98050206379
                ]
            }
        },
        {
            "type": "Feature",
            "properties": {
                "station": "DJNR",
                "ref": "C",
                "railway": "subway_entrance",
                "name": "Shaneshwara Temple Side"
            },
            "geometry": {
                "type": "Point",
                "coordinates": [
                    77.53673896059,
                    12.95245644572
                ]
            }
        },
        {
            "type": "Feature",
            "properties": {
                "name": "BWSSB Water Tank Side",
                "station": "RJNR",
                "ref": "A",
                "railway": "subway_entrance"
            },
            "geometry": {
                "type": "Point",
                "coordinates": [
                    77.54953174711,
                    12.99949290357
                ]
            }
        },
        {
            "type": "Feature",
            "properties": {
                "station": "TTY",
                "ref": "C",
                "name": "South Side",
                "railway": "subway_entrance"
            },
            "geometry": {
                "type": "Point",
                "coordinates": [
                    77.61706173353,
                    12.97263085489
                ]
            }
        },
        {
            "type": "Feature",
            "properties": {
                "station": "DSH",
                "ref": "B",
                "railway": "subway_entrance",
                "name": "Jalahalli Cross Side"
            },
            "geometry": {
                "type": "Point",
                "coordinates": [
                    77.51284450158,
                    13.04324896603
                ]
            }
        },
        {
            "type": "Feature",
            "properties": {
                "station": "ITPL",
                "ref": "B",
                "railway": "subway_entrance",
                "name": "Pattandur Agrahara Side"
            },
            "geometry": {
                "type": "Point",
                "coordinates": [
                    77.73787110909,
                    12.98741771826
                ]
            }
        },
        {
            "type": "Feature",
            "properties": {
                "station": "KDGD",
                "name": "Kadugodi Tree Park Side",
                "ref": "A",
                "railway": "subway_entrance"
            },
            "geometry": {
                "type": "Point",
                "coordinates": [
                    77.74704426460,
                    12.98586131595
                ]
            }
        },
        {
            "type": "Feature",
            "properties": {
                "name": "80ft Road Side",
                "ref": "C",
                "station": "SVRD",
                "railway": "subway_entrance"
            },
            "geometry": {
                "type": "Point",
                "coordinates": [
                    77.64490507476,
                    12.98546862029
                ]
            }
        },
        {
            "type": "Feature",
            "properties": {
                "station": "HSLI",
                "ref": "B",
                "railway": "subway_entrance",
                "name": "Adichunchangiri Mutt Side"
            },
            "geometry": {
                "type": "Point",
                "coordinates": [
                    77.54581421345,
                    12.97405208049
                ]
            }
        },
        {
            "type": "Feature",
            "properties": {
                "station": "JLHL",
                "ref": "B",
                "railway": "subway_entrance",
                "name": "Peenya Industrial Area Side"
            },
            "geometry": {
                "type": "Point",
                "coordinates": [
                    77.52015620336,
                    13.03919746397
                ]
            }
        },
        {
            "type": "Feature",
            "properties": {
                "highway": "elevator"
            },
            "geometry": {
                "type": "Point",
                "coordinates": [
                    77.51185208425,
                    12.93495403563
                ]
            }
        },
        {
            "type": "Feature",
            "properties": {
                "public_transport": "platform",
                "station": "PEYA",
                "destination": "Madavara",
                "name": "Platform 1",
                "color": "green",
                "ref": "1"
            },
            "geometry": {
                "type": "Point",
                "coordinates": [
                    77.53285645902,
                    13.03317300597
                ]
            }
        },
        {
            "type": "Feature",
            "properties": {
                "public_transport": "platform",
                "station": "DJNR",
                "destination": "Whitefield (Kadugodi)",
                "name": "Platform 1",
                "ref": "1",
                "color": "purple"
            },
            "geometry": {
                "type": "Point",
                "coordinates": [
                    77.53676174998,
                    12.95249305037
                ]
            }
        },
        {
            "type": "Feature",
            "properties": {
                "public_transport": "platform",
                "destination": "Madavara",
                "name": "Platform 1",
                "station": "PUTH",
                "color": "green",
                "ref": "1"
            },
            "geometry": {
                "type": "Point",
                "coordinates": [
                    77.57042766889,
                    12.89659187600
                ]
            }
        },
        {
            "type": "Feature",
            "properties": {
                "ref": "B",
                "name": "GG Palya Side",
                "railway": "subway_entrance",
                "station": "YPI"
            },
            "geometry": {
                "type": "Point",
                "coordinates": [
                    77.54090845317,
                    13.02800420912
                ]
            }
        },
        {
            "type": "Feature",
            "properties": {
                "highway": "elevator"
            },
            "geometry": {
                "type": "Point",
                "coordinates": [
                    77.53329634599,
                    13.03331737593
                ]
            }
        },
        {
            "type": "Feature",
            "properties": {
                "public_transport": "platform",
                "station": "KGWA",
                "destination": "Madavara",
                "name": "Platform 3",
                "color": "green",
                "ref": "3"
            },
            "geometry": {
                "type": "Point",
                "coordinates": [
                    77.57270067394,
                    12.97604374284
                ]
            }
        },
        {
            "type": "Feature",
            "properties": {
                "ref": "B",
                "name": "KEB Colony Side",
                "station": "DKIA",
                "railway": "subway_entrance"
            },
            "geometry": {
                "type": "Point",
                "coordinates": [
                    77.71128103070,
                    12.98900547247
                ]
            }
        },
        {
            "type": "Feature",
            "properties": {
                "highway": "elevator"
            },
            "geometry": {
                "type": "Point",
                "coordinates": [
                    77.63907998666,
                    12.97820788653
                ]
            }
        },
        {
            "type": "Feature",
            "properties": {
                "ref": "B",
                "station": "PATG",
                "railway": "subway_entrance",
                "name": "Dubasipalya Side"
            },
            "geometry": {
                "type": "Point",
                "coordinates": [
                    77.49818757042,
                    12.92445539855
                ]
            }
        },
        {
            "type": "Feature",
            "properties": {
                "public_transport": "platform",
                "name": "Platform 2",
                "station": "KVPR",
                "destination": "Silk Institute",
                "ref": "2",
                "color": "green"
            },
            "geometry": {
                "type": "Point",
                "coordinates": [
                    77.55737184942,
                    12.99846318922
                ]
            }
        },
        {
            "type": "Feature",
            "properties": {
                "name": "GG Palya Side",
                "ref": "A",
                "railway": "subway_entrance",
                "station": "YPI"
            },
            "geometry": {
                "type": "Point",
                "coordinates": [
                    77.54114984393,
                    13.02786310580
                ]
            }
        },
        {
            "type": "Feature",
            "properties": {
                "name": "Vikasa Soudha Side",
                "station": "VDSA",
                "ref": "E",
                "railway": "subway_entrance"
            },
            "geometry": {
                "type": "Point",
                "coordinates": [
                    77.59011894330,
                    12.97763287330
                ]
            }
        },
        {
            "type": "Feature",
            "properties": {
                "station": "SPRU",
                "ref": "A",
                "railway": "subway_entrance",
                "name": "Maruthi Extension"
            },
            "geometry": {
                "type": "Point",
                "coordinates": [
                    77.56406261444,
                    12.99646779417
                ]
            }
        },
        {
            "type": "Feature",
            "properties": {
                "name": "Jayanagar 4th Block Side",
                "station": "JYN",
                "ref": "A",
                "railway": "subway_entrance"
            },
            "geometry": {
                "type": "Point",
                "coordinates": [
                    77.58036978509,
                    12.92920970623
                ]
            }
        },
        {
            "type": "Feature",
            "properties": {
                "public_transport": "platform",
                "name": "Platform 2",
                "station": "VJRH",
                "destination": "Silk Institute",
                "ref": "2",
                "color": "green"
            },
            "geometry": {
                "type": "Point",
                "coordinates": [
                    77.54470064663,
                    12.87701257268
                ]
            }
        },
        {
            "type": "Feature",
            "properties": {
                "ref": "B",
                "name": "Mysore Sandal Soap Factory Side",
                "railway": "subway_entrance",
                "station": "SSFY"
            },
            "geometry": {
                "type": "Point",
                "coordinates": [
                    77.55386888713,
                    13.01382997519
                ]
            }
        },
        {
            "type": "Feature",
            "properties": {
                "station": "TGTP",
                "ref": "A",
                "railway": "subway_entrance",
                "name": "Govt Model Primary School SIde"
            },
            "geometry": {
                "type": "Point",
                "coordinates": [
                    77.53849848971,
                    12.87124829167
                ]
            }
        },
        {
            "type": "Feature",
            "properties": {
                "public_transport": "platform",
                "destination": "Madavara",
                "name": "Platform 1",
                "station": "KRMT",
                "color": "green",
                "ref": "1"
            },
            "geometry": {
                "type": "Point",
                "coordinates": [
                    77.57465063989,
                    12.96132285751
                ]
            }
        },
        {
            "type": "Feature",
            "properties": {
                "highway": "elevator"
            },
            "geometry": {
                "type": "Point",
                "coordinates": [
                    77.55303740367,
                    12.88484364534
                ]
            }
        },
        {
            "type": "Feature",
            "properties": {
                "highway": "elevator"
            },
            "geometry": {
                "type": "Point",
                "coordinates": [
                    77.47667357191,
                    12.90817588699
                ]
            }
        },
        {
            "type": "Feature",
            "properties": {
                "highway": "elevator"
            },
            "geometry": {
                "type": "Point",
                "coordinates": [
                    77.73754790291,
                    12.98750984752
                ]
            }
        },
        {
            "type": "Feature",
            "properties": {
                "name": "Whitefield Railway Station Side",
                "ref": "B",
                "railway": "subway_entrance",
                "station": "WHTM"
            },
            "geometry": {
                "type": "Point",
                "coordinates": [
                    77.75814592570,
                    12.99586537354
                ]
            }
        },
        {
            "type": "Feature",
            "properties": {
                "name": "Magadi Road/Leprosy Hospital",
                "ref": "C",
                "railway": "subway_entrance",
                "station": "BRCS"
            },
            "geometry": {
                "type": "Point",
                "coordinates": [
                    77.56536349520,
                    12.97558895188
                ]
            }
        },
        {
            "type": "Feature",
            "properties": {
                "name": "Banashankari Nagar Side",
                "ref": "B",
                "station": "BSNK",
                "railway": "subway_entrance"
            },
            "geometry": {
                "type": "Point",
                "coordinates": [
                    77.57377859171,
                    12.91542754990
                ]
            }
        },
        {
            "type": "Feature",
            "properties": {
                "highway": "elevator"
            },
            "geometry": {
                "type": "Point",
                "coordinates": [
                    77.69263800200,
                    12.99638970568
                ]
            }
        },
        {
            "type": "Feature",
            "properties": {
                "station": "BIET",
                "public_transport": "platform",
                "name": "Platform 2",
                "destination": "Silk Institute",
                "ref": "2",
                "color": "green"
            },
            "geometry": {
                "type": "Point",
                "coordinates": [
                    77.47341870725,
                    13.05741106759
                ]
            }
        },
        {
            "type": "Feature",
            "properties": {
                "station": "RRRN",
                "name": "Rajarajeshwari Nagar Side",
                "railway": "subway_entrance",
                "ref": "A"
            },
            "geometry": {
                "type": "Point",
                "coordinates": [
                    77.51968547568,
                    12.93645063057
                ]
            }
        },